$GPGGA,193845.000,3010.4648420,N,09630.6227331,W,1,16,0.7,98.604,M,-24.900,M,,0000*5B
$GNGSA,A,3,04,07,08,09,16,30,,,,,,,1.4,0.7,1.2,1*36
$GNGSA,A,3,19,27,,,,,,,,,,,1.4,0.7,1.2,3*3F
$GNGSA,A,3,11,23,25,32,34,37,41,43,,,,,1.4,0.7,1.2,4*33
$GNGSA,A,3,,,,,,,,,,,,,1.4,0.7,1.2,6*37
$GNGLL,3010.4648420,N,09630.6227331,W,193845.000,A,A*51
$GNRMC,193845.000,A,3010.4648420,N,09630.6227331,W,000.1,000.0,301223,,,A,V*1C
$GNVTG,000.0,T,,M,000.1,N,000.2,K,A*10
$GNZDA,193845.000,30,12,2023,00,00*49
$PSTI,030,193845.000,A,3010.4648420,N,09630.6227331,W,98.604,0.01,-0.05,0.01,301223,A,0.000,0.000*18
$PSTI,032,193845.000,301223,V,,,,,,,,,,,*48
$GPGGA,193846.000,3010.4648420,N,09630.6227331,W,1,16,0.7,98.604,M,-24.900,M,,0000*58
$GNGSA,A,3,04,07,08,09,16,30,,,,,,,1.4,0.7,1.2,1*36
$GNGSA,A,3,19,27,,,,,,,,,,,1.4,0.7,1.2,3*3F
$GNGSA,A,3,11,23,25,32,34,37,41,43,,,,,1.4,0.7,1.2,4*33
$GNGSA,A,3,,,,,,,,,,,,,1.4,0.7,1.2,6*37
$GPGSV,3,1,10,09,74,257,54,08,61,123,36,04,53,161,32,07,42,319,44,1*69
$GPGSV,3,2,10,27,40,059,,16,18,046,18,30,16,300,24,194,00,000,33,1*51
$GPGSV,3,3,10,193,00,000,29,195,00,000,31,1*6A
$GPGSV,2,1,05,09,74,257,48,08,61,123,35,04,53,161,20,30,16,300,32,8*64
$GPGSV,2,2,05,195,00,000,19,8*6D
$GAGSV,3,1,09,27,66,003,48,07,43,159,,21,43,258,,19,30,317,30,7*79
$GAGSV,3,2,09,30,20,047,,15,05,108,,34,01,062,,13,00,155,,7*70
$GAGSV,3,3,09,20,00,000,42,7*4E
$GAGSV,1,1,03,27,66,003,43,19,30,317,32,20,00,000,10,1*4B
$GBGSV,3,1,10,23,58,333,52,25,40,054,46,32,40,279,27,41,36,206,28,1*7F
$GBGSV,3,2,10,43,34,129,31,11,32,098,25,34,28,072,39,37,19,281,33,1*7C
$GBGSV,3,3,10,12,12,047,,20,06,324,,1*75
$GBGSV,2,1,07,23,58,333,44,32,40,279,34,25,40,054,40,41,36,206,29,5*7E
$GBGSV,2,2,07,43,34,129,23,34,28,072,36,37,19,281,23,5*45
$GNGLL,3010.4648420,N,09630.6227331,W,193846.000,A,A*52
$GNRMC,193846.000,A,3010.4648420,N,09630.6227331,W,000.1,000.0,301223,,,A,V*1F
$GNVTG,000.0,T,,M,000.1,N,000.2,K,A*10
$GNZDA,193846.000,30,12,2023,00,00*4A
$PSTI,030,193846.000,A,3010.4648420,N,09630.6227331,W,98.604,-0.00,-0.05,0.02,301223,A,0.000,0.000*34
$PSTI,032,193846.000,301223,V,,,,,,,,,,,*4B
$GPGGA,193847.000,3010.4648420,N,09630.6227331,W,1,16,0.7,98.604,M,-24.900,M,,0000*59
$GNGSA,A,3,04,07,08,09,16,30,,,,,,,1.4,0.7,1.2,1*36
$GNGSA,A,3,19,27,,,,,,,,,,,1.4,0.7,1.2,3*3F
$GNGSA,A,3,11,23,25,32,34,37,41,43,,,,,1.4,0.7,1.2,4*33
$GNGSA,A,3,,,,,,,,,,,,,1.4,0.7,1.2,6*37
$GNGLL,3010.4648420,N,09630.6227331,W,193847.000,A,A*53
$GNRMC,193847.000,A,3010.4648420,N,09630.6227331,W,000.1,000.0,301223,,,A,V*1E
$GNVTG,000.0,T,,M,000.1,N,000.2,K,A*10
$GNZDA,193847.000,30,12,2023,00,00*4B
$PSTI,030,193847.000,A,3010.4648420,N,09630.6227331,W,98.604,0.00,-0.04,0.01,301223,A,0.000,0.000*1A
$PSTI,032,193847.000,301223,V,,,,,,,,,,,*4A
$GPGGA,193848.000,3010.4648420,N,09630.6227331,W,1,16,0.7,98.604,M,-24.900,M,,0000*56
$GNGSA,A,3,04,07,08,09,16,30,,,,,,,1.4,0.7,1.2,1*36
$GNGSA,A,3,19,27,,,,,,,,,,,1.4,0.7,1.2,3*3F
$GNGSA,A,3,11,23,25,32,34,37,41,43,,,,,1.4,0.7,1.2,4*33
$GNGSA,A,3,,,,,,,,,,,,,1.4,0.7,1.2,6*37
$GNGLL,3010.4648420,N,09630.6227331,W,193848.000,A,A*5C
$GNRMC,193848.000,A,3010.4648420,N,09630.6227331,W,000.1,000.0,301223,,,A,V*11
$GNVTG,000.0,T,,M,000.1,N,000.1,K,A*13
$GNZDA,193848.000,30,12,2023,00,00*44
$PSTI,030,193848.000,A,3010.4648420,N,09630.6227331,W,98.604,0.00,-0.04,0.01,301223,A,0.000,0.000*15
$PSTI,032,193848.000,301223,V,,,,,,,,,,,*45
$GPGGA,193849.000,3010.4648420,N,09630.6227331,W,1,16,0.7,98.604,M,-24.900,M,,0000*57
$GNGSA,A,3,04,07,08,09,16,30,,,,,,,1.4,0.7,1.2,1*36
$GNGSA,A,3,19,27,,,,,,,,,,,1.4,0.7,1.2,3*3F
$GNGSA,A,3,11,23,25,32,34,37,41,43,,,,,1.4,0.7,1.2,4*33
$GNGSA,A,3,,,,,,,,,,,,,1.4,0.7,1.2,6*37
$GPGSV,3,1,10,09,74,257,54,08,61,123,36,04,52,161,31,07,42,319,44,1*6B
$GPGSV,3,2,10,27,40,059,,16,18,046,18,30,16,300,23,14,13,244,,1*6F
$GPGSV,3,3,10,196,00,000,32,193,00,000,24,1*67
$GPGSV,2,1,05,09,74,257,48,08,61,123,35,04,52,161,20,30,16,300,32,8*65
$GPGSV,2,2,05,193,00,000,20,8*61
$GAGSV,3,1,09,27,66,003,48,07,43,159,,21,43,258,,19,30,317,30,7*79
$GAGSV,3,2,09,30,20,047,,15,05,108,,34,01,062,,13,00,155,,7*70
$GAGSV,3,3,09,20,00,000,42,7*4E
$GAGSV,1,1,03,27,66,003,43,19,30,317,32,20,00,000,08,1*42
$GBGSV,3,1,10,23,58,333,52,25,40,054,46,32,40,279,25,41,36,206,28,1*7D
$GBGSV,3,2,10,43,34,129,31,11,32,098,26,34,28,072,39,37,19,281,33,1*7F
$GBGSV,3,3,10,12,12,047,,20,06,324,,1*75
$GBGSV,2,1,07,23,58,333,44,32,40,279,34,25,40,054,40,41,36,206,28,5*7F
$GBGSV,2,2,07,43,34,129,23,34,28,072,36,37,19,281,23,5*45
$GNGLL,3010.4648420,N,09630.6227331,W,193849.000,A,A*5D
$GNRMC,193849.000,A,3010.4648420,N,09630.6227331,W,000.1,000.0,301223,,,A,V*10
$GNVTG,000.0,T,,M,000.1,N,000.2,K,A*10
$GNZDA,193849.000,30,12,2023,00,00*45
$PSTI,030,193849.000,A,3010.4648420,N,09630.6227331,W,98.604,0.00,-0.06,0.00,301223,A,0.000,0.000*17
$PSTI,032,193849.000,301223,V,,,,,,,,,,,*44
$GPGGA,193850.000,3010.4648420,N,09630.6227331,W,1,16,0.8,98.604,M,-24.900,M,,0000*50
$GNGSA,A,3,04,07,08,09,16,30,,,,,,,1.5,0.8,1.3,1*39
$GNGSA,A,3,19,27,,,,,,,,,,,1.5,0.8,1.3,3*30
$GNGSA,A,3,11,23,25,32,34,37,41,43,,,,,1.5,0.8,1.3,4*3C
$GNGSA,A,3,,,,,,,,,,,,,1.5,0.8,1.3,6*38
$GNGLL,3010.4648420,N,09630.6227331,W,193850.000,A,A*55
$GNRMC,193850.000,A,3010.4648420,N,09630.6227331,W,000.1,000.0,301223,,,A,V*18
$GNVTG,000.0,T,,M,000.1,N,000.2,K,A*10
$GNZDA,193850.000,30,12,2023,00,00*4D
$PSTI,030,193850.000,A,3010.4648420,N,09630.6227331,W,98.604,0.01,-0.06,0.01,301223,A,0.000,0.000*1F
$PSTI,032,193850.000,301223,V,,,,,,,,,,,*4C
$GPGGA,193851.000,3010.4648420,N,09630.6227331,W,1,16,0.7,98.604,M,-24.900,M,,0000*5E
$GNGSA,A,3,04,07,08,09,16,30,,,,,,,1.4,0.7,1.2,1*36
$GNGSA,A,3,19,27,,,,,,,,,,,1.4,0.7,1.2,3*3F
$GNGSA,A,3,11,23,25,32,34,37,41,43,,,,,1.4,0.7,1.2,4*33
$GNGSA,A,3,,,,,,,,,,,,,1.4,0.7,1.2,6*37
$GNGLL,3010.4648420,N,09630.6227331,W,193851.000,A,A*54
$GNRMC,193851.000,A,3010.4648420,N,09630.6227331,W,000.0,000.0,301223,,,A,V*18
$GNVTG,000.0,T,,M,000.0,N,000.1,K,A*12
$GNZDA,193851.000,30,12,2023,00,00*4C
$PSTI,030,193851.000,A,3010.4648420,N,09630.6227331,W,98.604,0.01,-0.02,0.03,301223,A,0.000,0.000*18
$PSTI,032,193851.000,301223,V,,,,,,,,,,,*4D
$GPGGA,193852.000,3010.4648420,N,09630.6227331,W,1,16,0.7,98.604,M,-24.900,M,,0000*5D
$GNGSA,A,3,04,07,08,09,16,30,,,,,,,1.4,0.7,1.2,1*36
$GNGSA,A,3,19,27,,,,,,,,,,,1.4,0.7,1.2,3*3F
$GNGSA,A,3,11,23,25,32,34,37,41,43,,,,,1.4,0.7,1.2,4*33
$GNGSA,A,3,,,,,,,,,,,,,1.4,0.7,1.2,6*37
$GPGSV,3,1,10,09,74,254,54,08,61,122,35,04,52,161,32,07,43,319,45,1*69
$GPGSV,3,2,10,27,40,059,,16,18,046,20,30,16,300,22,14,13,244,,1*65
$GPGSV,3,3,10,21,05,140,,193,00,000,22,1*5D
$GPGSV,2,1,05,09,74,254,48,08,61,122,35,04,52,161,20,30,16,300,32,8*67
$GPGSV,2,2,05,193,00,000,15,8*67
$GAGSV,3,1,09,27,66,003,48,21,43,258,,07,43,159,,19,30,317,31,7*78
$GAGSV,3,2,09,30,20,047,,15,05,108,,34,01,062,,13,00,155,,7*70
$GAGSV,3,3,09,20,00,000,42,7*4E
$GAGSV,1,1,03,27,66,003,43,19,30,317,31,20,00,000,06,1*4F
$GBGSV,3,1,10,23,58,333,52,25,40,054,46,32,40,279,27,41,36,206,28,1*7F
$GBGSV,3,2,10,43,34,129,32,11,32,098,25,34,28,072,39,37,19,281,34,1*78
$GBGSV,3,3,10,12,12,047,,20,06,324,,1*75
$GBGSV,2,1,07,23,58,333,44,32,40,279,34,25,40,054,40,41,36,206,28,5*7F
$GBGSV,2,2,07,43,34,129,23,34,28,072,36,37,19,281,22,5*44
$GNGLL,3010.4648420,N,09630.6227331,W,193852.000,A,A*57
$GNRMC,193852.000,A,3010.4648420,N,09630.6227331,W,000.1,000.0,301223,,,A,V*1A
$GNVTG,000.0,T,,M,000.1,N,000.1,K,A*13
$GNZDA,193852.000,30,12,2023,00,00*4F
$PSTI,030,193852.000,A,3010.4648420,N,09630.6227331,W,98.604,0.00,-0.03,0.04,301223,A,0.000,0.000*1C
$PSTI,032,193852.000,301223,V,,,,,,,,,,,*4E
$GPGGA,193853.000,3010.4648420,N,09630.6227331,W,1,16,0.7,98.604,M,-24.900,M,,0000*5C
$GNGSA,A,3,04,07,08,09,16,30,,,,,,,1.4,0.7,1.2,1*36
$GNGSA,A,3,19,27,,,,,,,,,,,1.4,0.7,1.2,3*3F
$GNGSA,A,3,11,23,25,32,34,37,41,43,,,,,1.4,0.7,1.2,4*33
$GNGSA,A,3,,,,,,,,,,,,,1.4,0.7,1.2,6*37
$GNGLL,3010.4648420,N,09630.6227331,W,193853.000,A,A*56
$GNRMC,193853.000,A,3010.4648420,N,09630.6227331,W,000.1,000.0,301223,,,A,V*1B
$GNVTG,000.0,T,,M,000.1,N,000.2,K,A*10
$GNZDA,193853.000,30,12,2023,00,00*4E
$PSTI,030,193853.000,A,3010.4648420,N,09630.6227331,W,98.604,-0.00,-0.05,0.01,301223,A,0.000,0.000*33
$PSTI,032,193853.000,301223,V,,,,,,,,,,,*4F
$GPGGA,193854.000,3010.4648420,N,09630.6227331,W,1,16,0.7,98.604,M,-24.900,M,,0000*5B
$GNGSA,A,3,04,07,08,09,16,30,,,,,,,1.4,0.7,1.2,1*36
$GNGSA,A,3,19,27,,,,,,,,,,,1.4,0.7,1.2,3*3F
$GNGSA,A,3,11,23,25,32,34,37,41,43,,,,,1.4,0.7,1.2,4*33
$GNGSA,A,3,,,,,,,,,,,,,1.4,0.7,1.2,6*37
$GNGLL,3010.4648420,N,09630.6227331,W,193854.000,A,A*51
$GNRMC,193854.000,A,3010.4648420,N,09630.6227331,W,000.1,000.0,301223,,,A,V*1C
$GNVTG,000.0,T,,M,000.1,N,000.2,K,A*10
$GNZDA,193854.000,30,12,2023,00,00*49
$PSTI,030,193854.000,A,3010.4648420,N,09630.6227331,W,98.604,0.01,-0.05,0.00,301223,A,0.000,0.000*19
$PSTI,032,193854.000,301223,V,,,,,,,,,,,*48
$GPGGA,193855.000,3010.4648420,N,09630.6227331,W,1,16,0.7,98.604,M,-24.900,M,,0000*5A
$GNGSA,A,3,04,07,08,09,16,30,,,,,,,1.4,0.7,1.2,1*36
$GNGSA,A,3,19,27,,,,,,,,,,,1.4,0.7,1.2,3*3F
$GNGSA,A,3,11,23,25,32,34,37,41,43,,,,,1.4,0.7,1.2,4*33
$GNGSA,A,3,,,,,,,,,,,,,1.4,0.7,1.2,6*37
$GPGSV,3,1,10,09,74,254,54,08,61,122,36,04,52,161,31,07,43,319,44,1*68
$GPGSV,3,2,10,27,40,059,,16,18,046,21,30,16,300,19,14,13,244,,1*6C
$GPGSV,3,3,10,21,05,140,,02,03,149,,1*6B
$GPGSV,1,1,04,09,74,254,48,08,61,122,35,04,52,161,19,30,16,300,32,8*6F
$GAGSV,3,1,09,27,66,003,48,21,43,258,,07,43,159,,19,30,317,31,7*78
$GAGSV,3,2,09,30,20,047,,15,05,108,,34,01,062,,13,00,155,,7*70
$GAGSV,3,3,09,20,00,000,42,7*4E
$GAGSV,1,1,03,27,66,003,43,19,30,317,32,20,00,000,04,1*4E
$GBGSV,3,1,10,23,58,333,52,25,40,054,46,32,40,279,25,41,36,206,28,1*7D
$GBGSV,3,2,10,43,34,129,32,11,32,098,23,34,28,072,39,37,19,281,33,1*79
$GBGSV,3,3,10,12,12,047,,20,06,324,,1*75
$GBGSV,2,1,07,23,58,333,44,32,40,279,34,25,40,054,40,41,36,206,28,5*7F
$GBGSV,2,2,07,43,34,129,23,34,28,072,36,37,19,281,22,5*44
$GNGLL,3010.4648420,N,09630.6227331,W,193855.000,A,A*50
$GNRMC,193855.000,A,3010.4648420,N,09630.6227331,W,000.1,000.0,301223,,,A,V*1D
$GNVTG,000.0,T,,M,000.1,N,000.2,K,A*10
$GNZDA,193855.000,30,12,2023,00,00*48
$PSTI,030,193855.000,A,3010.4648420,N,09630.6227331,W,98.604,0.01,-0.04,-0.00,301223,A,0.000,0.000*34
$PSTI,032,193855.000,301223,V,,,,,,,,,,,*49
$GPGGA,193856.000,3010.4648420,N,09630.6227331,W,1,16,0.7,98.604,M,-24.900,M,,0000*59
$GNGSA,A,3,04,07,08,09,16,30,,,,,,,1.4,0.7,1.2,1*36
$GNGSA,A,3,19,27,,,,,,,,,,,1.4,0.7,1.2,3*3F
$GNG
$PSTI,032,193902.000,301223,V,,,,,,,,,,,*4A
$GPGGA,193903.000,3010.4648420,N,09630.6227331,W,1,16,0.7,98.604,M,-24.900,M,,0000*58
$GNGSA,A,3,04,07,08,09,16,30,,,,,,,1.4,0.7,1.2,1*36
$GNGSA,A,3,19,27,,,,,,,,,,,1.4,0.7,1.2,3*3F
$GNGSA,A,3,11,23,25,32,34,37,41,43,,,,,1.4,0.7,1.2,4*33
$GNGSA,A,3,,,,,,,,,,,,,1.4,0.7,1.2,6*37
$GNGLL,3010.4648420,N,09630.6227331,W,193903.000,A,A*52
$GNRMC,193903.000,A,3010.4648420,N,09630.6227331,W,000.1,000.0,301223,,,A,V*1F
$GNVTG,000.0,T,,M,000.1,N,000.2,K,A*10
$GNZDA,193903.000,30,12,2023,00,00*4A
$PSTI,030,193903.000,A,3010.4648420,N,09630.6227331,W,98.604,0.01,-0.05,0.01,301223,A,0.000,0.000*1B
$PSTI,032,193903.000,301223,V,,,,,,,,,,,*4B
$GPGGA,193904.000,3010.4648420,N,09630.6227331,W,1,16,0.7,98.604,M,-24.900,M,,0000*5F
$GNGSA,A,3,04,07,08,09,16,30,,,,,,,1.4,0.7,1.2,1*36
$GNGSA,A,3,19,27,,,,,,,,,,,1.4,0.7,1.2,3*3F
$GNGSA,A,3,11,23,25,32,34,37,41,43,,,,,1.4,0.7,1.2,4*33
$GNGSA,A,3,,,,,,,,,,,,,1.4,0.7,1.2,6*37
$GPGSV,3,1,10,09,74,254,54,08,61,122,38,04,52,161,30,07,43,319,45,1*66
$GPGSV,3,2,10,27,40,059,,16,17,047,24,30,16,300,24,14,14,245,,1*6F
$GPGSV,3,3,10,21,06,139,,02,03,149,,1*66
$GPGSV,1,1,04,09,74,254,48,08,61,122,34,04,52,161,19,30,16,300,32,8*6E
$GAGSV,3,1,09,27,66,003,48,21,43,258,,07,43,159,,19,30,317,32,7*7B
$GAGSV,3,2,09,30,20,047,,15,05,108,,34,01,062,,13,00,155,,7*70
$GAGSV,3,3,09,20,00,000,42,7*4E
$GAGSV,1,1,03,27,66,003,43,19,30,317,32,20,00,000,08,1*42
$GBGSV,3,1,10,23,58,333,51,25,40,054,46,32,40,279,26,41,36,206,28,1*7D
$GBGSV,3,2,10,43,34,129,33,11,32,098,23,34,28,072,39,37,19,281,33,1*78
$GBGSV,3,3,10,12,12,047,,20,06,324,,1*75
$GBGSV,2,1,07,23,58,333,44,32,40,279,34,25,40,054,40,41,36,206,29,5*7E
$GBGSV,2,2,07,43,34,129,23,34,28,072,37,37,19,281,21,5*46
$GNGLL,3010.4648420,N,09630.6227331,W,193904.000,A,A*55
$GNRMC,193904.000,A,3010.4648420,N,09630.6227331,W,000.1,000.0,301223,,,A,V*18
$GNVTG,000.0,T,,M,000.1,N,000.2,K,A*10
$GNZDA,193904.000,30,12,2023,00,00*4D
$PSTI,030,193904.000,A,3010.4648420,N,09630.6227331,W,98.604,0.01,-0.04,0.02,301223,A,0.000,0.000*1E
$PSTI,032,193904.000,301223,V,,,,,,,,,,,*4C
$GPGGA,193905.000,3010.4648420,N,09630.6227331,W,1,16,0.8,98.604,M,-24.900,M,,0000*51
$GNGSA,A,3,04,07,08,09,16,30,,,,,,,1.5,0.8,1.3,1*39
$GNGSA,A,3,19,27,,,,,,,,,,,1.5,0.8,1.3,3*30
$GNGSA,A,3,11,23,25,32,34,37,41,43,,,,,1.5,0.8,1.3,4*3C
$GNGSA,A,3,,,,,,,,,,,,,1.5,0.8,1.3,6*38
$GNGLL,3010.4648420,N,09630.6227331,W,193905.000,A,A*54
$GNRMC,193905.000,A,3010.4648420,N,09630.6227331,W,000.1,000.0,301223,,,A,V*19
$GNVTG,000.0,T,,M,000.1,N,000.1,K,A*13
$GNZDA,193905.000,30,12,2023,00,00*4C
$PSTI,030,193905.000,A,3010.4648420,N,09630.6227331,W,98.604,-0.00,-0.03,0.01,301223,A,0.000,0.000*37
$PSTI,032,193905.000,301223,V,,,,,,,,,,,*4D
$GPGGA,193906.000,3010.4648420,N,09630.6227331,W,1,15,0.8,98.604,M,-24.900,M,,0000*51
$GNGSA,A,3,04,07,08,09,30,,,,,,,,1.6,0.8,1.3,1*3D
$GNGSA,A,3,19,27,,,,,,,,,,,1.6,0.8,1.3,3*33
$GNGSA,A,3,11,23,25,32,34,37,41,43,,,,,1.6,0.8,1.3,4*3F
$GNGSA,A,3,,,,,,,,,,,,,1.6,0.8,1.3,6*3B
$GNGLL,3010.4648420,N,09630.6227331,W,193906.000,A,A*57
$GNRMC,193906.000,A,3010.4648420,N,09630.6227331,W,000.1,000.0,301223,,,A,V*1A
$GNVTG,000.0,T,,M,000.1,N,000.2,K,A*10
$GNZDA,193906.000,30,12,2023,00,00*4F
$PSTI,030,193906.000,A,3010.4648420,N,09630.6227331,W,98.604,-0.00,-0.06,0.00,301223,A,0.000,0.000*30
$PSTI,032,193906.000,301223,V,,,,,,,,,,,*4E
$GPGGA,193907.000,3010.4648420,N,09630.6227331,W,1,16,0.7,98.604,M,-24.900,M,,0000*5C
$GNGSA,A,3,04,07,08,09,16,30,,,,,,,1.4,0.7,1.2,1*36
$GNGSA,A,3,19,27,,,,,,,,,,,1.4,0.7,1.2,3*3F
$GNGSA,A,3,11,23,25,32,34,37,41,43,,,,,1.4,0.7,1.2,4*33
$GNGSA,A,3,,,,,,,,,,,,,1.4,0.7,1.2,6*37
$GPGSV,3,1,10,09,74,254,54,08,61,122,38,04,52,161,31,07,43,319,45,1*67
$GPGSV,3,2,10,27,40,059,,16,17,047,24,30,16,300,28,14,14,245,,1*63
$GPGSV,3,3,10,21,06,139,,02,03,149,,1*66
$GPGSV,1,1,04,09,74,254,48,08,61,122,34,04,52,161,19,30,16,300,32,8*6E
$GAGSV,3,1,09,27,66,003,48,21,43,258,,07,43,159,,19,30,317,32,7*7B
$GAGSV,3,2,09,30,20,047,,15,05,108,,34,01,062,,13,00,155,,7*70
$GAGSV,3,3,09,20,00,000,42,7*4E
$GAGSV,1,1,03,27,66,003,43,19,30,317,32,20,00,000,12,1*49
$GBGSV,3,1,10,23,58,333,51,25,40,054,46,32,40,279,27,41,36,206,26,1*72
$GBGSV,3,2,10,43,34,129,32,11,32,098,25,34,28,072,39,37,19,281,34,1*78
$GBGSV,3,3,10,12,12,047,,20,06,324,,1*75
$GBGSV,2,1,07,23,58,333,44,32,40,279,33,25,40,054,40,41,36,206,28,5*78
$GBGSV,2,2,07,43,34,129,22,34,28,072,37,37,19,281,20,5*46
$GNGLL,3010.4648420,N,09630.6227331,W,193907.000,A,A*56
$GNRMC,193907.000,A,3010.4648420,N,09630.6227331,W,000.1,000.0,301223,,,A,V*1B
$GNVTG,000.0,T,,M,000.1,N,000.2,K,A*10
$GNZDA,193907.000,30,12,2023,00,00*4E
$PSTI,030,193907.000,A,3010.4648420,N,09630.6227331,W,98.604,0.01,-0.04,0.00,301223,A,0.000,0.000*1F
$PSTI,032,193907.000,301223,V,,,,,,,,,,,*4F
$GPGGA,193908.000,3010.4648420,N,09630.6227331,W,1,15,0.8,98.604,M,-24.900,M,,0000*5F
$GNGSA,A,3,04,07,08,09,16,30,,,,,,,1.5,0.8,1.3,1*39
$GNGSA,A,3,19,27,,,,,,,,,,,1.5,0.8,1.3,3*30
$GNGSA,A,3,23,25,32,34,37,41,43,,,,,,1.5,0.8,1.3,4*3C
$GNGSA,A,3,,,,,,,,,,,,,1.5,0.8,1.3,6*38
$GNGLL,3010.4648420,N,09630.6227331,W,193908.000,A,A*59
$GNRMC,193908.000,A,3010.4648420,N,09630.6227331,W,000.1,000.0,301223,,,A,V*14
$GNVTG,000.0,T,,M,000.1,N,000.2,K,A*10
$GNZDA,193908.000,30,12,2023,00,00*41
$PSTI,030,193908.000,A,3010.4648420,N,09630.6227331,W,98.604,0.00,-0.05,0.01,301223,A,0.000,0.000*11
$PSTI,032,193908.000,301223,V,,,,,,,,,,,*40
$GPGGA,193909.000,3010.4648420,N,09630.6227331,W,1,16,0.7,98.604,M,-24.900,M,,0000*52
$GNGSA,A,3,04,07,08,09,16,30,,,,,,,1.4,0.7,1.2,1*36
$GNGSA,A,3,19,27,,,,,,,,,,,1.4,0.7,1.2,3*3F
$GNGSA,A,3,11,23,25,32,34,37,41,43,,,,,1.4,0.7,1.2,4*33
$GNGSA,A,3,,,,,,,,,,,,,1.4,0.7,1.2,6*37
$GNGLL,3010.4648420,N,09630.6227331,W,193909.000,A,A*58
$GNRMC,193909.000,A,3010.4648420,N,09630.6227331,W,000.1,000.0,301223,,,A,V*15
$GNVTG,000.0,T,,M,000.1,N,000.2,K,A*10
$GNZDA,193909.000,30,12,2023,00,00*40
$PSTI,030,193909.000,A,3010.4648420,N,09630.6227331,W,98.604,0.01,-0.06,-0.00,301223,A,0.000,0.000*3E
$PSTI,032,193909.000,301223,V,,,,,,,,,,,*41
$GPGGA,193910.000,3010.4648420,N,09630.6227331,W,1,16,0.7,98.604,M,-24.900,M,,0000*5A
$GNGSA,A,3,04,07,08,09,16,30,,,,,,,1.4,0.7,1.2,1*36
$GNGSA,A,3,19,27,,,,,,,,,,,1.4,0.7,1.2,3*3F
$GNGSA,A,3,11,23,25,32,34,37,41,43,,,,,1.4,0.7,1.2,4*33
$GNGSA,A,3,,,,,,,,,,,,,1.4,0.7,1.2,6*37
$GPGSV,3,1,10,09,74,254,54,08,61,122,37,04,52,161,30,07,43,319,46,1*6A
$GPGSV,3,2,10,27,40,059,,16,17,047,24,30,16,300,29,14,14,245,,1*62
$GPGSV,3,3,10,21,06,139,,02,03,149,,1*66
$GPGSV,1,1,04,09,74,254,47,08,61,122,34,04,52,161,19,30,16,300,33,8*60
$GAGSV,3,1,09,27,66,003,48,21,43,258,,07,43,159,,19,30,317,33,7*7A
$GAGSV,3,2,09,30,20,047,,15,05,108,,34,01,062,,13,00,155,,7*70
$GAGSV,3,3,09,20,00,000,42,7*4E
$GAGSV,1,1,03,27,66,003,43,19,30,317,32,20,00,000,09,1*43
$GBGSV,3,1,10,23,58,333,51,25,40,054,46,32,40,279,29,41,36,206,25,1*7F
$GBGSV,3,2,10,43,34,129,32,11,32,098,24,34,28,072,39,37,19,281,34,1*79
$GBGSV,3,3,10,12,12,047,,20,06,324,,1*75
$GBGSV,2,1,07,23,58,333,44,32,40,279,34,25,40,054,40,41,36,206,27,5*70
$GBGSV,2,2,07,43,34,129,23,34,28,072,37,37,19,281,19,5*4D
$GNGLL,3010.4648420,N,09630.6227331,W,193910.000,A,A*50
$GNRMC,193910.000,A,3010.4648420,N,09630.6227331,W,000.1,000.0,301223,,,A,V*1D
$GNVTG,000.0,T,,M,000.1,N,000.2,K,A*10
$GNZDA,193910.000,30,12,2023,00,00*48
$PSTI,030,193910.000,A,3010.4648420,N,09630.6227331,W,98.604,0.01,-0.05,-0.00,301223,A,0.000,0.000*35
$PSTI,032,193910.000,301223,V,,,,,,,,,,,*49
$GPGGA,193911.000,3010.4648420,N,09630.6227331,W,1,16,0.7,98.604,M,-24.900,M,,0000*5B
$GNGSA,A,3,04,07,08,09,16,30,,,,,,,1.4,0.7,1.2,1*36
$GNGSA,A,3,19,27,,,,,,,,,,,1.4,0.7,1.2,3*3F
$GNGSA,A,3,11,23,25,32,34,37,41,43,,,,,1.4,0.7,1.2,4*33
$GNGSA,A,3,,,,,,,,,,,,,1.4,0.7,1.2,6*37
$GNGLL,3010.4648420,N,09630.6227331,W,193911.000,A,A*51
$GNRMC,193911.000,A,3010.4648420,N,09630.6227331,W,000.1,000.0,301223,,,A,V*1C
$GNVTG,000.0,T,,M,000.1,N,000.2,K,A*10
$GNZDA,193911.000,30,12,2023,00,00*49
$PSTI,030,193911.000,A,3010.4648420,N,09630.6227331,W,98.604,0.00,-0.06,0.00,301223,A,0.000,0.000*1B
$PSTI,032,193911.000,301223,V,,,,,,,,,,,*48
$GPGGA,193912.000,3010.4648420,N,09630.6227331,W,1,16,0.7,98.604,M,-24.900,M,,0000*58
$GNGSA,A,3,04,07,08,09,16,30,,,,,,,1.4,0.7,1.2,1*36
$GNGSA,A,3,19,27,,,,,,,,,,,1.4,0.7,1.2,3*3F
$GNGSA,A,3,11,23,25,32,34,37,41,43,,,,,1.4,0.7,1.2,4*33
$GNGSA,A,3,,,,,,,,,,,,,1.4,0.7,1.2,6*37
$GNGLL,3010.4648420,N,09630.6227331,W,193912.000,A,A*52
$GNRMC,193912.000,A,3010.4648420,N,09630.6227331,W,000.1,000.0,301223,,,A,V*1F
$GNVTG,000.0,T,,M,000.1,N,000.2,K,A*10
$GNZDA,193912.000,30,12,2023,00,00*4A
$PSTI,030,193912.000,A,3010.4648420,N,09630.6227331,W,98.604,0.01,-0.05,0.01,301223,A,0.000,0.000*1B
$PSTI,032,193912.000,301223,V,,,,,,,,,,,*4B
$GPGGA,193913.000,3010.4648420,N,09630.6227331,W,1,16,0.7,98.604,M,-24.900,M,,0000*59
$GNGSA,A,3,04,07,08,09,16,30,,,,,,,1.4,0.7,1.2,1*36
$GNGSA,A,3,19,27,,,,,,,,,,,1.4,0.7,1.2,3*3F
$GNGSA,A,3,11,23,25,32,34,37,41,43,,,,,1.4,0.7,1.2,4*33
$GNGSA,A,3,,,,,,,,,,,,,1.4,0.7,1.2,6*37
$GPGSV,3,1,10,09,74,254,53,08,61,122,37,04,52,161,28,07,43,319,45,1*67
$GPGSV,3,2,10,27,40,059,,16,17,047,24,30,16,300,28,14,14,245,,1*63
$GPGSV,3,3,10,21,06,139,,02,03,149,,1*66
$GPGSV,1,1,04,09,74,254,47,08,61,122,34,04,52,161,18,30,16,300,32,8*60
$GAGSV,3,1,09,27,66,003,48,21,43,258,,07,43,159,,19,30,317,33,7*7A
$GAGSV,3,2,09,30,20,047,,15,05,108,,34,01,062,,13,00,155,,7*70
$GAGSV,3,3,09,20,00,000,42,7*4E
$GAGSV,1,1,03,27,66,003,43,19,30,317,32,20,00,000,06,1*4C
$GBGSV,3,1,10,23,58,333,52,25,40,054,46,32,40,279,28,41,36,206,25,1*7D
$GBGSV,3,2,10,43,34,129,34,11,32,098,27,34,28,072,39,37,19,281,33,1*7B
$GBGSV,3,3,10,12,12,047,,20,06,324,,1*75
$GBGSV,2,1,07,23,58,333,44,32,40,279,33,25,40,054,40,41,36,206,28,5*78
$GBGSV,2,2,07,43,34,129,22,34,28,072,37,37,19,281,17,5*42
$GNGLL,3010.4648420,N,09630.6227331,W,193913.000,A,A*53
$GNRMC,193913.000,A,3010.4648420,N,09630.6227331,W,000.1,000.0,301223,,,A,V*1E
$GNVTG,000.0,T,,M,000.1,N,000.2,K,A*10
$GNZDA,193913.000,30,12,2023,00,00*4B
$PSTI,030,193913.000,A,3010.4648420,N,09630.6227331,W,98.604,-0.01,-0.06,0.00,301223,A,0.000,0.000*35
$PSTI,032,193913.000,301223,V,,,,,,,,,,,*4A
$GPGGA,193914.000,3010.4648420,N,09630.6227331,W,1,16,0.7,98.604,M,-24.900,M,,0000*5E
$GNGSA,A,3,04,07,08,09,16,30,,,,,,,1.4,0.7,1.2,1*36
$GNGSA,A,3,19,27,,,,,,,,,,,1.4,0.7,1.2,3*3F
$GNGSA,A,3,11,23,25,32,34,37,41,43,,,,,1.4,0.7,1.2,4*33
$GNGSA,A,3,,,,,,,,,,,,,1.4,0.7,1.2,6*37
$GNGLL,3010.4648420,N,09630.6227331,W,193914.000,A,A*54
$GNRMC,193914.000,A,3010.4648420,N,09630.$GPGGA,193921.000,3010.4648420,N,09630.6227331,W,1,16,0.7,98.604,M,-24.900,M,,0000*58
$GNGSA,A,3,04,07,08,09,16,30,,,,,,,1.4,0.7,1.2,1*36
$GNGSA,A,3,19,27,,,,,,,,,,,1.4,0.7,1.2,3*3F
$GNGSA,A,3,11,23,25,32,34,37,41,43,,,,,1.4,0.7,1.2,4*33
$GNGSA,A,3,,,,,,,,,,,,,1.4,0.7,1.2,6*37
$GNGLL,3010.4648420,N,09630.6227331,W,193921.000,A,A*52
$GNRMC,193921.000,A,3010.4648420,N,09630.6227331,W,000.1,000.0,301223,,,A,V*1F
$GNVTG,000.0,T,,M,000.1,N,000.2,K,A*10
$GNZDA,193921.000,30,12,2023,00,00*4A
$PSTI,030,193921.000,A,3010.4648420,N,09630.6227331,W,98.604,0.00,-0.05,0.00,301223,A,0.000,0.000*1B
$PSTI,032,193921.000,301223,V,,,,,,,,,,,*4B
$GPGGA,193922.000,3010.4648420,N,09630.6227331,W,1,16,0.7,98.604,M,-24.900,M,,0000*5B
$GNGSA,A,3,04,07,08,09,16,30,,,,,,,1.4,0.7,1.2,1*36
$GNGSA,A,3,19,27,,,,,,,,,,,1.4,0.7,1.2,3*3F
$GNGSA,A,3,11,23,25,32,34,37,41,43,,,,,1.4,0.7,1.2,4*33
$GNGSA,A,3,,,,,,,,,,,,,1.4,0.7,1.2,6*37
$GPGSV,3,1,10,09,74,254,53,08,61,122,39,04,52,161,28,07,43,319,45,1*69
$GPGSV,3,2,10,27,40,059,,16,17,047,24,30,16,300,25,14,14,245,,1*6E
$GPGSV,3,3,10,21,06,139,,02,03,149,,1*66
$GPGSV,1,1,04,09,74,254,47,08,61,122,34,04,52,161,19,30,16,300,33,8*60
$GAGSV,3,1,09,27,66,003,48,21,43,258,,07,43,159,,19,30,317,34,7*7D
$GAGSV,3,2,09,30,20,047,,15,05,108,,34,01,062,,13,00,155,,7*70
$GAGSV,3,3,09,20,00,000,42,7*4E
$GAGSV,1,1,03,27,66,003,42,19,30,317,32,20,00,000,09,1*42
$GBGSV,3,1,10,23,58,333,52,25,40,054,46,32,40,279,29,41,36,206,30,1*78
$GBGSV,3,2,10,43,34,129,33,11,32,098,28,34,28,072,39,37,19,281,31,1*71
$GBGSV,3,3,10,12,12,047,,20,06,324,,1*75
$GBGSV,2,1,07,23,58,333,44,32,40,279,33,25,40,054,40,41,36,206,28,5*78
$GBGSV,2,2,07,43,34,129,22,34,28,072,37,37,19,281,11,5*44
$GNGLL,3010.4648420,N,09630.6227331,W,193922.000,A,A*51
$GNRMC,193922.000,A,3010.4648420,N,09630.6227331,W,000.1,000.0,301223,,,A,V*1C
$GNVTG,000.0,T,,M,000.1,N,000.2,K,A*10
$GNZDA,193922.000,30,12,2023,00,00*49
$PSTI,030,193922.000,A,3010.4648420,N,09630.6227331,W,98.604,0.01,-0.05,0.02,301223,A,0.000,0.000*1B
$PSTI,032,193922.000,301223,V,,,,,,,,,,,*48
$GPGGA,193923.000,3010.4648420,N,09630.6227331,W,1,16,0.7,98.604,M,-24.900,M,,0000*5A
$GNGSA,A,3,04,07,08,09,16,30,,,,,,,1.4,0.7,1.2,1*36
$GNGSA,A,3,19,27,,,,,,,,,,,1.4,0.7,1.2,3*3F
$GNGSA,A,3,11,23,25,32,34,37,41,43,,,,,1.4,0.7,1.2,4*33
$GNGSA,A,3,,,,,,,,,,,,,1.4,0.7,1.2,6*37
$GNGLL,3010.4648420,N,09630.6227331,W,193923.000,A,A*50
$GNRMC,193923.000,A,3010.4648420,N,09630.6227331,W,000.1,000.0,301223,,,A,V*1D
$GNVTG,000.0,T,,M,000.1,N,000.2,K,A*10
$GNZDA,193923.000,30,12,2023,00,00*48
$PSTI,030,193923.000,A,3010.4648420,N,09630.6227331,W,98.604,0.00,-0.05,0.01,301223,A,0.000,0.000*18
$PSTI,032,193923.000,301223,V,,,,,,,,,,,*49
$GPGGA,193924.000,3010.4648420,N,09630.6227331,W,1,16,0.7,98.604,M,-24.900,M,,0000*5D
$GNGSA,A,3,04,07,08,09,16,30,,,,,,,1.4,0.7,1.2,1*36
$GNGSA,A,3,19,27,,,,,,,,,,,1.4,0.7,1.2,3*3F
$GNGSA,A,3,11,23,25,32,34,37,41,43,,,,,1.4,0.7,1.2,4*33
$GNGSA,A,3,,,,,,,,,,,,,1.4,0.7,1.2,6*37
$GNGLL,3010.4648420,N,09630.6227331,W,193924.000,A,A*57
$GNRMC,193924.000,A,3010.4648420,N,09630.6227331,W,000.1,000.0,301223,,,A,V*1A
$GNVTG,000.0,T,,M,000.1,N,000.2,K,A*10
$GNZDA,193924.000,30,12,2023,00,00*4F
$PSTI,030,193924.000,A,3010.4648420,N,09630.6227331,W,98.604,0.01,-0.05,0.00,301223,A,0.000,0.000*1F
$PSTI,032,193924.000,301223,V,,,,,,,,,,,*4E
$GPGGA,193925.000,3010.4648420,N,09630.6227331,W,1,16,0.7,98.604,M,-24.900,M,,0000*5C
$GNGSA,A,3,04,07,08,09,16,30,,,,,,,1.4,0.7,1.2,1*36
$GNGSA,A,3,19,27,,,,,,,,,,,1.4,0.7,1.2,3*3F
$GNGSA,A,3,11,23,25,32,34,37,41,43,,,,,1.4,0.7,1.2,4*33
$GNGSA,A,3,,,,,,,,,,,,,1.4,0.7,1.2,6*37
$GPGSV,3,1,10,09,74,254,53,08,61,122,39,04,52,161,27,07,43,319,45,1*66
$GPGSV,3,2,10,27,40,059,,16,17,047,24,30,16,300,24,14,14,245,,1*6F
$GPGSV,3,3,10,21,06,139,,02,03,149,,1*66
$GPGSV,1,1,04,09,74,254,47,08,61,122,33,04,52,161,19,30,16,300,33,8*67
$GAGSV,3,1,09,27,66,003,48,21,43,258,,07,43,159,,19,30,317,34,7*7D
$GAGSV,3,2,09,30,20,047,,15,05,108,,34,01,062,,13,00,155,,7*70
$GAGSV,3,3,09,20,00,000,42,7*4E
$GAGSV,1,1,03,27,66,003,42,19,30,317,32,20,00,000,08,1*43
$GBGSV,3,1,10,23,58,333,51,25,40,054,45,32,40,279,29,41,36,206,29,1*70
$GBGSV,3,2,10,43,34,129,33,11,32,098,29,34,28,072,38,37,19,281,31,1*71
$GBGSV,3,3,10,12,12,047,,20,06,324,,1*75
$GBGSV,2,1,07,23,58,333,44,32,40,279,33,25,40,054,40,41,36,206,26,5*76
$GBGSV,2,2,07,43,34,129,22,34,28,072,37,37,19,281,11,5*44
$GNGLL,3010.4648420,N,09630.6227331,W,193925.000,A,A*56
$GNRMC,193925.000,A,3010.4648420,N,09630.6227331,W,000.1,000.0,301223,,,A,V*1B
$GNVTG,000.0,T,,M,000.1,N,000.2,K,A*10
$GNZDA,193925.000,30,12,2023,00,00*4E
$PSTI,030,193925.000,A,3010.4648420,N,09630.6227331,W,98.604,-0.00,-0.04,0.00,301223,A,0.000,0.000*33
$PSTI,032,193925.000,301223,V,,,,,,,,,,,*4F
$GPGGA,193926.000,3010.4648420,N,09630.6227331,W,1,16,0.7,98.604,M,-24.900,M,,0000*5F
$GNGSA,A,3,04,07,08,09,16,30,,,,,,,1.4,0.7,1.2,1*36
$GNGSA,A,3,19,27,,,,,,,,,,,1.4,0.7,1.2,3*3F
$GNGSA,A,3,11,23,25,32,34,37,41,43,,,,,1.4,0.7,1.2,4*33
$GNGSA,A,3,,,,,,,,,,,,,1.4,0.7,1.2,6*37
$GNGLL,3010.4648420,N,09630.6227331,W,193926.000,A,A*55
$GNRMC,193926.000,A,3010.4648420,N,09630.6227331,W,000.1,000.0,301223,,,A,V*18
$GNVTG,000.0,T,,M,000.1,N,000.1,K,A*13
$GNZDA,193926.000,30,12,2023,00,00*4D
$PSTI,030,193926.000,A,3010.4648420,N,09630.6227331,W,98.604,0.01,-0.03,0.01,301223,A,0.000,0.000*1A
$PSTI,032,193926.000,301223,V,,,,,,,,,,,*4C
$GPGGA,193927.000,3010.4648420,N,09630.6227331,W,1,16,0.7,98.604,M,-24.900,M,,0000*5E
$GNGSA,A,3,04,07,08,09,16,30,,,,,,,1.4,0.7,1.2,1*36
$GNGSA,A,3,19,27,,,,,,,,,,,1.4,0.7,1.2,3*3F
$GNGSA,A,3,11,23,25,32,34,37,41,43,,,,,1.4,0.7,1.2,4*33
$GNGSA,A,3,,,,,,,,,,,,,1.4,0.7,1.2,6*37
$GNGLL,3010.4648420,N,09630.6227331,W,193927.000,A,A*54
$GNRMC,193927.000,A,3010.4648420,N,09630.6227331,W,000.1,000.0,301223,,,A,V*19
$GNVTG,000.0,T,,M,000.1,N,000.2,K,A*10
$GNZDA,193927.000,30,12,2023,00,00*4C
$PSTI,030,193927.000,A,3010.4648420,N,09630.6227331,W,98.604,-0.01,-0.05,0.01,301223,A,0.000,0.000*30
$PSTI,032,193927.000,301223,V,,,,,,,,,,,*4D
$GPGGA,193928.000,3010.4648420,N,09630.6227331,W,1,16,0.7,98.604,M,-24.900,M,,0000*51
$GNGSA,A,3,04,07,08,09,16,30,,,,,,,1.4,0.7,1.2,1*36
$GNGSA,A,3,19,27,,,,,,,,,,,1.4,0.7,1.2,3*3F
$GNGSA,A,3,11,23,25,32,34,37,41,43,,,,,1.4,0.7,1.2,4*33
$GNGSA,A,3,,,,,,,,,,,,,1.4,0.7,1.2,6*37
$GPGSV,3,1,10,09,74,254,53,08,61,122,39,04,52,161,28,07,43,319,45,1*69
$GPGSV,3,2,10,27,40,059,,16,17,047,24,30,16,300,23,14,14,245,,1*68
$GPGSV,3,3,10,21,06,139,,02,03,149,,1*66
$GPGSV,1,1,04,09,74,254,47,08,61,122,34,04,52,161,19,30,16,300,33,8*60
$GAGSV,3,1,09,27,66,003,48,21,43,258,,07,43,159,,19,30,317,34,7*7D
$GAGSV,3,2,09,30,20,047,,15,05,108,,34,01,062,,13,00,155,,7*70
$GAGSV,3,3,09,20,00,000,42,7*4E
$GAGSV,1,1,03,27,66,003,42,19,30,317,32,20,00,000,11,1*4B
$GBGSV,3,1,10,23,58,333,51,25,40,054,45,32,40,279,28,41,36,206,29,1*71
$GBGSV,3,2,10,43,34,129,34,11,33,098,30,34,28,072,38,37,19,281,30,1*7E
$GBGSV,3,3,10,12,12,046,,20,06,324,,1*74
$GBGSV,2,1,07,23,58,333,44,32,40,279,32,25,40,054,40,41,36,206,27,5*76
$GBGSV,2,2,07,43,34,129,22,34,28,072,37,37,19,281,07,5*43
$GNGLL,3010.4648420,N,09630.6227331,W,193928.000,A,A*5B
$GNRMC,193928.000,A,3010.4648420,N,09630.6227331,W,000.1,000.0,301223,,,A,V*16
$GNVTG,000.0,T,,M,000.1,N,000.2,K,A*10
$GNZDA,193928.000,30,12,2023,00,00*43
$PSTI,030,193928.000,A,3010.4648420,N,09630.6227331,W,98.604,0.00,-0.04,0.00,301223,A,0.000,0.000*13
$PSTI,032,193928.000,301223,V,,,,,,,,,,,*42
$GPGGA,193929.000,3010.4648420,N,09630.6227331,W,1,16,0.8,98.604,M,-24.900,M,,0000*5F
$GNGSA,A,3,04,07,08,09,16,30,,,,,,,1.5,0.8,1.3,1*39
$GNGSA,A,3,19,27,,,,,,,,,,,1.5,0.8,1.3,3*30
$GNGSA,A,3,11,23,25,32,34,37,41,43,,,,,1.5,0.8,1.3,4*3C
$GNGSA,A,3,,,,,,,,,,,,,1.5,0.8,1.3,6*38
$GNGLL,3010.4648420,N,09630.6227331,W,193929.000,A,A*5A
$GNRMC,193929.000,A,3010.4648420,N,09630.6227331,W,000.1,000.0,301223,,,A,V*17
$GNVTG,000.0,T,,M,000.1,N,000.1,K,A*13
$GNZDA,193929.000,30,12,2023,00,00*42
$PSTI,030,193929.000,A,3010.4648420,N,09630.6227331,W,98.604,-0.00,-0.04,0.00,301223,A,0.000,0.000*3F
$PSTI,032,193929.000,301223,V,,,,,,,,,,,*43
$GPGGA,193930.000,3010.4648420,N,09630.6227331,W,1,16,0.7,98.604,M,-24.900,M,,0000*58
$GNGSA,A,3,04,07,08,09,16,30,,,,,,,1.4,0.7,1.2,1*36
$GNGSA,A,3,19,27,,,,,,,,,,,1.4,0.7,1.2,3*3F
$GNGSA,A,3,11,23,25,32,34,37,41,43,,,,,1.4,0.7,1.2,4*33
$GNGSA,A,3,,,,,,,,,,,,,1.4,0.7,1.2,6*37
$GNGLL,3010.4648420,N,09630.6227331,W,193930.000,A,A*52
$GNRMC,193930.000,A,3010.4648420,N,09630.6227331,W,000.1,000.0,301223,,,A,V*1F
$GNVTG,000.0,T,,M,000.1,N,000.2,K,A*10
$GNZDA,193930.000,30,12,2023,00,00*4A
$PSTI,030,193930.000,A,3010.4648420,N,09630.6227331,W,98.604,0.01,-0.04,0.01,301223,A,0.000,0.000*1A
$PSTI,032,193930.000,301223,V,,,,,,,,,,,*4B
$GPGGA,193931.000,3010.4648420,N,09630.6227331,W,1,16,0.7,98.604,M,-24.900,M,,0000*59
$GNGSA,A,3,04,07,08,09,16,30,,,,,,,1.4,0.7,1.2,1*36
$GNGSA,A,3,19,27,,,,,,,,,,,1.4,0.7,1.2,3*3F
$GNGSA,A,3,11,23,25,32,34,37,41,43,,,,,1.4,0.7,1.2,4*33
$GNGSA,A,3,,,,,,,,,,,,,1.4,0.7,1.2,6*37
$GPGSV,3,1,10,09,74,254,53,08,61,122,39,04,52,161,29,07,43,319,45,1*68
$GPGSV,3,2,10,27,40,059,,16,17,047,25,30,16,300,20,14,14,245,,1*6A
$GPGSV,3,3,10,21,06,139,,02,03,149,,1*66
$GPGSV,1,1,04,09,74,254,47,08,61,122,34,04,52,161,19,30,16,300,33,8*60
$GAGSV,3,1,09,27,66,003,48,21,43,258,,07,43,159,,19,30,317,34,7*7D
$GAGSV,3,2,09,30,20,047,,15,05,108,,34,01,062,,13,00,155,,7*70
$GAGSV,3,3,09,20,00,000,42,7*4E
$GAGSV,1,1,03,27,66,003,42,19,30,317,32,20,00,000,09,1*42
$GBGSV,3,1,10,23,58,333,52,25,40,054,45,32,40,279,27,41,36,206,30,1*75
$GBGSV,3,2,10,43,34,129,33,11,33,098,30,34,28,072,38,37,19,281,29,1*71
$GBGSV,3,3,10,12,12,046,,20,06,324,,1*74
$GBGSV,2,1,07,23,58,333,44,32,40,279,32,25,40,054,40,41,36,206,26,5*77
$GBGSV,2,2,07,43,34,129,21,34,28,072,37,37,19,281,12,5*44
$GNGLL,3010.4648420,N,09630.6227331,W,193931.000,A,A*53
$GNRMC,193931.000,A,3010.4648420,N,09630.6227331,W,000.1,000.0,301223,,,A,V*1E
$GNVTG,000.0,T,,M,000.1,N,000.2,K,A*10
$GNZDA,193931.000,30,12,2023,00,00*4B
$PSTI,030,193931.000,A,3010.4648420,N,09630.6227331,W,98.604,-0.00,-0.05,0.01,301223,A,0.000,0.000*36
$PSTI,032,193931.000,301223,V,,,,,,,,,,,*4A
$GPGGA,193932.000,3010.4648420,N,09630.6227331,W,1,16,0.7,98.604,M,-24.900,M,,0000*5A
$GNGSA,A,3,04,07,08,09,16,30,,,,,,,1.4,0.7,1.2,1*36
$GNGSA,A,3,19,27,,,,,,,,,,,1.4,0.7,1.2,3*3F
$GNGSA,A,3,11,23,25,32,34,37,41,43,,,,,1.4,0.7,1.2,4*33
$GNGSA,A,3,,,,,,,,,,,,,1.4,0.7,1.2,6*37
$GNGLL,3010.4648420,N,09630.622733$GPGGA,193939.000,3010.4648420,N,09630.6227331,W,1,16,0.7,98.604,M,-24.900,M,,0000*51
$GNGSA,A,3,04,07,08,09,16,30,,,,,,,1.4,0.7,1.2,1*36
$GNGSA,A,3,19,27,,,,,,,,,,,1.4,0.7,1.2,3*3F
$GNGSA,A,3,11,23,25,32,34,37,41,43,,,,,1.4,0.7,1.2,4*33
$GNGSA,A,3,,,,,,,,,,,,,1.4,0.7,1.2,6*37
$GNGLL,3010.4648420,N,09630.6227331,W,193939.000,A,A*5B
$GNRMC,193939.000,A,3010.4648420,N,09630.6227331,W,000.1,000.0,301223,,,A,V*16
$GNVTG,000.0,T,,M,000.1,N,000.2,K,A*10
$GNZDA,193939.000,30,12,2023,00,00*43
$PSTI,030,193939.000,A,3010.4648420,N,09630.6227331,W,98.604,0.01,-0.05,0.00,301223,A,0.000,0.000*13
$PSTI,032,193939.000,301223,V,,,,,,,,,,,*42
$GPGGA,193940.000,3010.4648420,N,09630.6227331,W,1,16,0.8,98.604,M,-24.900,M,,0000*50
$GNGSA,A,3,04,07,08,09,16,30,,,,,,,1.5,0.8,1.3,1*39
$GNGSA,A,3,19,27,,,,,,,,,,,1.5,0.8,1.3,3*30
$GNGSA,A,3,11,23,25,32,34,37,41,43,,,,,1.5,0.8,1.3,4*3C
$GNGSA,A,3,,,,,,,,,,,,,1.5,0.8,1.3,6*38
$GPGSV,3,1,10,09,74,254,53,08,61,122,40,04,52,161,25,07,43,319,45,1*6A
$GPGSV,3,2,10,27,40,059,,16,17,047,24,30,16,300,21,14,14,245,,1*6A
$GPGSV,3,3,10,21,06,139,,02,03,149,,1*66
$GPGSV,1,1,04,09,74,254,47,08,61,122,34,04,52,161,21,30,16,300,34,8*6C
$GAGSV,3,1,09,27,66,003,48,07,43,159,,21,43,258,,19,30,317,34,7*7D
$GAGSV,3,2,09,30,20,047,,15,05,108,,34,01,062,,13,00,155,,7*70
$GAGSV,3,3,09,20,00,000,43,7*4F
$GAGSV,1,1,03,27,66,003,42,19,30,317,32,20,00,000,09,1*42
$GBGSV,3,1,10,23,58,334,51,25,40,054,45,32,40,279,30,41,36,206,31,1*76
$GBGSV,3,2,10,43,34,129,32,11,33,098,30,34,28,072,37,37,19,281,30,1*77
$GBGSV,3,3,10,12,12,046,,28,06,181,,1*71
$GBGSV,2,1,07,23,58,334,44,32,40,279,31,25,40,054,40,41,36,206,27,5*72
$GBGSV,2,2,07,43,34,129,22,34,28,072,37,37,19,281,11,5*44
$GNGLL,3010.4648420,N,09630.6227331,W,193940.000,A,A*55
$GNRMC,193940.000,A,3010.4648420,N,09630.6227331,W,000.1,000.0,301223,,,A,V*18
$GNVTG,000.0,T,,M,000.1,N,000.2,K,A*10
$GNZDA,193940.000,30,12,2023,00,00*4D
$PSTI,030,193940.000,A,3010.4648420,N,09630.6227331,W,98.604,-0.00,-0.05,0.00,301223,A,0.000,0.000*31
$PSTI,032,193940.000,301223,V,,,,,,,,,,,*4C
$GPGGA,193941.000,3010.4648420,N,09630.6227331,W,1,16,0.7,98.604,M,-24.900,M,,0000*5E
$GNGSA,A,3,04,07,08,09,16,30,,,,,,,1.4,0.7,1.2,1*36
$GNGSA,A,3,19,27,,,,,,,,,,,1.4,0.7,1.2,3*3F
$GNGSA,A,3,11,23,25,32,34,37,41,43,,,,,1.4,0.7,1.2,4*33
$GNGSA,A,3,,,,,,,,,,,,,1.4,0.7,1.2,6*37
$GNGLL,3010.4648420,N,09630.6227331,W,193941.000,A,A*54
$GNRMC,193941.000,A,3010.4648420,N,09630.6227331,W,000.1,000.0,301223,,,A,V*19
$GNVTG,000.0,T,,M,000.1,N,000.2,K,A*10
