$GPGGA,195111.000,3010.4628559,N,09630.6243401,W,5,15,0.8,103.604,M,-24.900,M,1.000,0000*4E
$GNGSA,A,3,04,07,08,09,30,,,,,,,,1.6,0.8,1.4,1*3A
$GNGSA,A,3,19,27,,,,,,,,,,,1.6,0.8,1.4,3*34
$GNGSA,A,3,11,23,25,32,34,37,41,43,,,,,1.6,0.8,1.4,4*38
$GNGSA,A,3,,,,,,,,,,,,,1.6,0.8,1.4,6*3C
$GNGLL,3010.4628559,N,09630.6243401,W,195111.000,A,D*55
$GNRMC,195111.000,A,3010.4628559,N,09630.6243401,W,000.2,000.0,301223,,,F,V*19
$GNVTG,000.0,T,,M,000.2,N,000.3,K,D*17
$GNZDA,195111.000,30,12,2023,00,00*47
$PSTI,030,195111.000,A,3010.4628559,N,09630.6243401,W,103.604,0.01,-0.08,-0.00,301223,F,1.000,1.000*0C
$PSTI,032,195111.000,301223,A,F,0.445,0.611,1.546,1.720,36.07,28.68,,,,*10
$PSTI,033,195111.000,301223,2,R,0,G,0,,0,,C,0,,0,,E,0,,0,,R,,,,,I,0,,,*2B
$PSTI,033,195111.000,301223,2,B,0,G,0,,0,,C,0,,0,,E,0,,0,,R,,,,,I,0,,,*3B
$GPGGA,195112.000,3010.4628909,N,09630.6243425,W,5,15,0.8,103.704,M,-24.900,M,1.000,0000*43
$GNGSA,A,3,04,07,08,09,30,,,,,,,,1.6,0.8,1.4,1*3A
$GNGSA,A,3,19,27,,,,,,,,,,,1.6,0.8,1.4,3*34
$GNGSA,A,3,11,23,25,32,34,37,41,43,,,,,1.6,0.8,1.4,4*38
$GNGSA,A,3,,,,,,,,,,,,,1.6,0.8,1.4,6*3C
$GNGLL,3010.4628909,N,09630.6243425,W,195112.000,A,D*59
$GNRMC,195112.000,A,3010.4628909,N,09630.6243425,W,000.1,000.0,301223,,,F,V*16
$GNVTG,000.0,T,,M,000.1,N,000.3,K,D*14
$GNZDA,195112.000,30,12,2023,00,00*44
$PSTI,030,195112.000,A,3010.4628909,N,09630.6243425,W,103.704,0.01,-0.07,-0.01,301223,F,1.000,1.000*0F
$PSTI,032,195112.000,301223,A,F,0.441,0.675,1.646,1.833,33.14,26.86,,,,*12
$PSTI,033,195112.000,301223,2,R,0,G,0,,0,,C,0,,0,,E,0,,0,,R,,,,,I,0,,,*28
$PSTI,033,195112.000,301223,2,B,0,G,0,,0,,C,0,,0,,E,0,,0,,R,,,,,I,0,,,*38
$GPGGA,195113.000,3010.4629288,N,09630.6243429,W,5,15,0.8,103.800,M,-24.900,M,1.000,0000*46
$GNGSA,A,3,04,07,08,09,30,,,,,,,,1.6,0.8,1.4,1*3A
$GNGSA,A,3,19,27,,,,,,,,,,,1.6,0.8,1.4,3*34
$GNGSA,A,3,11,23,25,32,34,37,41,43,,,,,1.6,0.8,1.4,4*38
$GNGSA,A,3,,,,,,,,,,,,,1.6,0.8,1.4,6*3C
$GPGSV,3,1,10,09,72,235,52,08,64,110,45,04,46,163,20,07,46,324,47,1*60
$GPGSV,3,2,10,27,36,053,,30,20,304,39,14,17,249,,16,13,049,,1*6A
$GPGSV,3,3,10,21,09,135,,02,06,145,,1*6C
$GPGSV,1,1,04,09,72,235,43,08,64,110,37,04,46,163,24,30,20,304,34,8*6D
$GAGSV,3,1,09,27,63,009,49,21,46,264,,07,39,161,,19,33,315,32,7*78
$GAGSV,3,2,09,30,17,050,,15,08,105,,34,02,058,,13,01,152,,7*7E
$GAGSV,3,3,09,20,00,000,41,7*4D
$GAGSV,1,1,02,27,63,009,43,19,33,315,30,1*75
$GBGSV,3,1,10,23,58,342,51,32,40,272,37,43,38,123,29,25,38,059,46,1*7B
$GBGSV,3,2,10,11,34,092,33,41,31,203,24,34,27,066,45,37,22,285,41,1*77
$GBGSV,3,3,10,12,10,043,,28,09,179,,1*7E
$GBGSV,2,1,07,23,58,342,44,32,40,272,29,43,38,123,26,25,38,059,41,5*7B
$GBGSV,2,2,07,41,31,203,19,34,27,066,37,37,22,285,32,5*47
$GNGLL,3010.4629288,N,09630.6243429,W,195113.000,A,D*57
$GNRMC,195113.000,A,3010.4629288,N,09630.6243429,W,000.1,000.0,301223,,,F,V*18
$GNVTG,000.0,T,,M,000.1,N,000.2,K,D*15
$GNZDA,195113.000,30,12,2023,00,00*45
$PSTI,030,195113.000,A,3010.4629288,N,09630.6243429,W,103.800,0.01,-0.07,0.00,301223,F,1.000,1.000*26
$PSTI,032,195113.000,301223,A,F,0.440,0.745,1.742,1.945,30.57,28.98,,,,*10
$PSTI,033,195113.000,301223,2,R,0,G,0,,0,,C,0,,0,,E,0,,0,,R,,,,,I,0,,,*29
$PSTI,033,195113.000,301223,2,B,0,G,0,,0,,C,0,,0,,E,0,,0,,R,,,,,I,0,,,*39
$GPGGA,195114.000,3010.4630030,N,09630.6243416,W,5,15,0.8,103.918,M,-24.900,M,1.000,0000*4C
$GNGSA,A,3,04,07,08,09,30,,,,,,,,1.6,0.8,1.4,1*3A
$GNGSA,A,3,19,27,,,,,,,,,,,1.6,0.8,1.4,3*34
$GNGSA,A,3,11,23,25,32,34,37,41,43,,,,,1.6,0.8,1.4,4*38
$GNGSA,A,3,,,,,,,,,,,,,1.6,0.8,1.4,6*3C
$GNGLL,3010.4630030,N,09630.6243416,W,195114.000,A,D*55
$GNRMC,195114.000,A,3010.4630030,N,09630.6243416,W,000.1,000.0,301223,,,F,V*1A
$GNVTG,000.0,T,,M,000.1,N,000.3,K,D*14
$GNZDA,195114.000,30,12,2023,00,00*42
$PSTI,030,195114.000,A,3010.4630030,N,09630.6243416,W,103.918,0.01,-0.08,0.00,301223,F,1.000,1.000*23
$PSTI,032,195114.000,301223,A,F,0.442,0.882,1.860,2.106,26.63,24.09,,,,*16
$PSTI,033,195114.000,301223,2,R,0,G,0,,0,,C,0,,0,,E,0,,0,,R,,,,,I,0,,,*2E
$PSTI,033,195114.000,301223,2,B,0,G,0,,0,,C,0,,0,,E,0,,0,,R,,,,,I,0,,,*3E
$GPGGA,195115.000,3010.4630382,N,09630.6243415,W,5,15,0.8,104.001,M,-24.900,M,1.000,0000*42
$GNGSA,A,3,04,07,08,09,30,,,,,,,,1.6,0.8,1.4,1*3A
$GNGSA,A,3,19,27,,,,,,,,,,,1.6,0.8,1.4,3*34
$GNGSA,A,3,11,23,25,32,34,37,41,43,,,,,1.6,0.8,1.4,4*38
$GNGSA,A,3,,,,,,,,,,,,,1.6,0.8,1.4,6*3C
$GNGLL,3010.4630382,N,09630.6243415,W,195115.000,A,D*5D
$GNRMC,195115.000,A,3010.4630382,N,09630.6243415,W,000.2,000.0,301223,,,F,V*11
$GNVTG,000.0,T,,M,000.2,N,000.3,K,D*17
$GNZDA,195115.000,30,12,2023,00,00*43
$PSTI,030,195115.000,A,3010.4630382,N,09630.6243415,W,104.001,0.00,-0.09,-0.00,301223,F,1.000,1.000*00
$PSTI,032,195115.000,301223,A,F,0.442,0.947,1.943,2.207,25.03,22.83,,,,*1C
$PSTI,033,195115.000,301223,2,R,0,G,0,,0,,C,0,,0,,E,0,,0,,R,,,,,I,0,,,*2F
$PSTI,033,195115.000,301223,2,B,0,G,0,,0,,C,0,,0,,E,0,,0,,R,,,,,I,0,,,*3F
$GPGGA,195116.000,3010.4630819,N,09630.6243456,W,5,15,0.8,104.097,M,-24.900,M,1.000,0000*40
$GNGSA,A,3,04,07,08,09,30,,,,,,,,1.6,0.8,1.4,1*3A
$GNGSA,A,3,19,27,,,,,,,,,,,1.6,0.8,1.4,3*34
$GNGSA,A,3,11,23,25,32,34,37,41,43,,,,,1.6,0.8,1.4,4*38
$GNGSA,A,3,,,,,,,,,,,,,1.6,0.8,1.4,6*3C
$GPGSV,3,1,10,09,72,235,52,08,64,110,45,04,46,163,21,07,46,324,47,1*61
$GPGSV,3,2,10,27,36,053,,30,20,304,39,14,17,249,,16,13,049,,1*6A
$GPGSV,3,3,10,21,09,135,,02,06,145,,1*6C
$GPGSV,1,1,04,09,72,235,43,08,64,110,37,04,46,163,24,30,20,304,34,8*6D
$GAGSV,3,1,09,27,63,009,49,21,46,264,,07,39,161,,19,33,315,33,7*79
$GAGSV,3,2,09,30,17,050,,15,08,105,,34,02,058,,13,01,152,,7*7E
$GAGSV,3,3,09,20,00,000,41,7*4D
$GAGSV,1,1,03,27,63,009,43,19,33,315,30,20,00,000,13,1*44
$GBGSV,3,1,10,23,58,342,51,32,40,272,37,43,38,123,29,25,38,059,46,1*7B
$GBGSV,3,2,10,11,34,092,32,41,31,203,24,34,27,066,45,37,22,285,41,1*76
$GBGSV,3,3,10,12,10,043,,28,09,179,,1*7E
$GBGSV,2,1,07,23,58,342,44,32,40,272,29,43,38,123,26,25,38,059,41,5*7B
$GBGSV,2,2,07,41,31,203,20,34,27,066,36,37,22,285,32,5*4C
$GNGLL,3010.4630819,N,09630.6243456,W,195116.000,A,D*50
$GNRMC,195116.000,A,3010.4630819,N,09630.6243456,W,000.1,000.0,301223,,,F,V*1F
$GNVTG,000.0,T,,M,000.1,N,000.2,K,D*15
$GNZDA,195116.000,30,12,2023,00,00*40
$PSTI,030,195116.000,A,3010.4630819,N,09630.6243456,W,104.097,0.01,-0.06,0.01,301223,F,1.000,1.000*20
$PSTI,032,195116.000,301223,A,F,0.436,1.028,2.039,2.325,22.97,24.71,,,,*1A
$PSTI,033,195116.000,301223,2,R,0,G,0,,0,,C,0,,0,,E,0,,0,,R,,,,,I,0,,,*2C
$PSTI,033,195116.000,301223,2,B,0,G,0,,0,,C,0,,0,,E,0,,0,,R,,,,,I,0,,,*3C
$GPGGA,195117.000,3010.4631479,N,09630.6243489,W,5,15,0.8,104.148,M,-24.900,M,1.000,0000*4B
$GNGSA,A,3,04,07,08,09,30,,,,,,,,1.6,0.8,1.4,1*3A
$GNGSA,A,3,19,27,,,,,,,,,,,1.6,0.8,1.4,3*34
$GNGSA,A,3,11,23,25,32,34,37,41,43,,,,,1.6,0.8,1.4,4*38
$GNGSA,A,3,,,,,,,,,,,,,1.6,0.8,1.4,6*3C
$GNGLL,3010.4631479,N,09630.6243489,W,195117.000,A,D*58
$GNRMC,195117.000,A,3010.4631479,N,09630.6243489,W,000.1,000.0,301223,,,F,V*17
$GNVTG,000.0,T,,M,000.1,N,000.3,K,D*14
$GNZDA,195117.000,30,12,2023,00,00*41
$PSTI,030,195117.000,A,3010.4631479,N,09630.6243489,W,104.148,0.01,-0.08,0.01,301223,F,1.000,1.000*25
$PSTI,032,195117.000,301223,A,F,0.431,1.150,2.090,2.424,20.53,21.23,,,,*1F
$PSTI,033,195117.000,301223,2,R,0,G,0,,0,,C,0,,0,,E,0,,0,,R,,,,,I,0,,,*2D
$PSTI,033,195117.000,301223,2,B,0,G,0,,0,,C,0,,0,,E,0,,0,,R,,,,,I,0,,,*3D
$GPGGA,195118.000,3010.4631959,N,09630.6243464,W,5,15,0.8,104.233,M,-24.900,M,1.000,0000*47
$GNGSA,A,3,04,07,08,09,30,,,,,,,,1.6,0.8,1.4,1*3A
$GNGSA,A,3,19,27,,,,,,,,,,,1.6,0.8,1.4,3*34
$GNGSA,A,3,11,23,25,32,34,37,41,43,,,,,1.6,0.8,1.4,4*38
$GNGSA,A,3,,,,,,,,,,,,,1.6,0.8,1.4,6*3C
$GNGLL,3010.4631959,N,09630.6243464,W,195118.000,A,D*5B
$GNRMC,195118.000,A,3010.4631959,N,09630.6243464,W,000.1,000.0,301223,,,F,V*14
$GNVTG,000.0,T,,M,000.1,N,000.3,K,D*14
$GNZDA,195118.000,30,12,2023,00,00*4E
$PSTI,030,195118.000,A,3010.4631959,N,09630.6243464,W,104.233,0.01,-0.07,0.00,301223,F,1.000,1.000*27
$PSTI,032,195118.000,301223,A,F,0.435,1.239,2.175,2.540,19.33,20.08,,,,*15
$PSTI,033,195118.000,301223,2,R,0,G,0,,0,,C,0,,0,,E,0,,0,,R,,,,,I,0,,,*22
$PSTI,033,195118.000,301223,2,B,0,G,0,,0,,C,0,,0,,E,0,,0,,R,,,,,I,0,,,*32
$GPGGA,195119.000,3010.4632342,N,09630.6243541,W,5,15,0.8,104.314,M,-24.900,M,1.000,0000*47
$GNGSA,A,3,04,07,08,09,30,,,,,,,,1.6,0.8,1.4,1*3A
$GNGSA,A,3,19,27,,,,,,,,,,,1.6,0.8,1.4,3*34
$GNGSA,A,3,11,23,25,32,34,37,41,43,,,,,1.6,0.8,1.4,4*38
$GNGSA,A,3,,,,,,,,,,,,,1.6,0.8,1.4,6*3C
$GPGSV,3,1,10,09,72,235,52,08,64,110,45,04,46,163,20,07,46,324,47,1*60
$GPGSV,3,2,10,27,36,053,,30,20,304,40,14,17,249,,16,13,049,,1*64
$GPGSV,3,3,10,21,09,135,,02,06,145,,1*6C
$GPGSV,1,1,04,09,72,235,43,08,64,110,37,04,46,163,24,30,20,304,34,8*6D
$GAGSV,3,1,09,27,63,009,49,21,46,264,,07,39,161,,19,33,315,33,7*79
$GAGSV,3,2,09,30,17,050,,15,08,105,,34,02,058,,13,01,152,,7*7E
$GAGSV,3,3,09,20,00,000,41,7*4D
$GAGSV,1,1,03,27,63,009,43,19,33,315,30,20,00,000,10,1*47
$GBGSV,3,1,10,23,58,342,51,32,40,272,37,43,38,123,30,25,38,059,46,1*73
$GBGSV,3,2,10,11,34,092,31,41,31,203,23,34,27,066,45,37,22,285,41,1*72
$GBGSV,3,3,10,12,10,043,,28,09,179,,1*7E
$GBGSV,2,1,07,23,58,342,44,32,40,272,29,43,38,123,26,25,38,059,41,5*7B
$GBGSV,2,2,07,41,31,203,19,34,27,066,37,37,22,285,32,5*47
$GNGLL,3010.4632342,N,09630.6243541,W,195119.000,A,D*5F
$GNRMC,195119.000,A,3010.4632342,N,09630.6243541,W,000.2,000.0,301223,,,F,V*13
$GNVTG,000.0,T,,M,000.2,N,000.3,K,D*17
$GNZDA,195119.000,30,12,2023,00,00*4F
$PSTI,030,195119.000,A,3010.4632342,N,09630.6243541,W,104.314,0.01,-0.08,0.00,301223,F,1.000,1.000*28
$PSTI,032,195119.000,301223,A,F,0.422,1.309,2.256,2.642,17.87,22.04,,,,*1C
$PSTI,033,195119.000,301223,2,R,0,G,0,,0,,C,0,,0,,E,0,,0,,R,,,,,I,0,,,*23
$PSTI,033,195119.000,301223,2,B,0,G,0,,0,,C,0,,0,$GPGGA,195126.000,3010.4636291,N,09630.6244093,W,5,16,0.7,104.760,M,-24.900,M,1.000,0000*46
$GNGSA,A,3,04,07,08,09,30,,,,,,,,1.6,0.7,1.4,1*35
$GNGSA,A,3,07,19,27,,,,,,,,,,1.6,0.7,1.4,3*3C
$GNGSA,A,3,11,23,25,32,34,37,41,43,,,,,1.6,0.7,1.4,4*37
$GNGSA,A,3,,,,,,,,,,,,,1.6,0.7,1.4,6*33
$GNGLL,3010.4636291,N,09630.6244093,W,195126.000,A,D*55
$GNRMC,195126.000,A,3010.4636291,N,09630.6244093,W,000.1,000.0,301223,,,F,V*1A
$GNVTG,000.0,T,,M,000.1,N,000.2,K,D*15
$GNZDA,195126.000,30,12,2023,00,00*43
$PSTI,030,195126.000,A,3010.4636291,N,09630.6244093,W,104.760,0.01,-0.07,0.00,301223,F,1.000,1.000*2A
$PSTI,032,195126.000,301223,A,F,0.334,2.039,2.702,3.402,9.29,15.45,,,,*2A
$PSTI,033,195126.000,301223,2,R,0,G,0,,0,,C,0,,0,,E,0,,0,,R,,,,,I,0,,,*2F
$PSTI,033,195126.000,301223,2,B,0,G,0,,0,,C,0,,0,,E,0,,0,,R,,,,,I,0,,,*3F
$GPGGA,195127.000,3010.4636813,N,09630.6244332,W,5,16,0.7,104.838,M,-24.900,M,1.000,0000*4D
$GNGSA,A,3,04,07,08,09,30,,,,,,,,1.6,0.7,1.4,1*35
$GNGSA,A,3,07,19,27,,,,,,,,,,1.6,0.7,1.4,3*3C
$GNGSA,A,3,11,23,25,32,34,37,41,43,,,,,1.6,0.7,1.4,4*37
$GNGSA,A,3,,,,,,,,,,,,,1.6,0.7,1.4,6*33
$GNGLL,3010.4636813,N,09630.6244332,W,195127.000,A,D*5C
$GNRMC,195127.000,A,3010.4636813,N,09630.6244332,W,000.1,000.0,301223,,,F,V*13
$GNVTG,000.0,T,,M,000.1,N,000.2,K,D*15
$GNZDA,195127.000,30,12,2023,00,00*42
$PSTI,030,195127.000,A,3010.4636813,N,09630.6244332,W,104.838,0.00,-0.06,0.00,301223,F,1.000,1.000*21
$PSTI,032,195127.000,301223,A,F,0.295,2.135,2.780,3.518,7.87,14.77,,,,*26
$PSTI,033,195127.000,301223,2,R,0,G,0,,0,,C,0,,0,,E,0,,0,,R,,,,,I,0,,,*2E
$PSTI,033,195127.000,301223,2,B,0,G,0,,0,,C,0,,0,,E,0,,0,,R,,,,,I,0,,,*3E
$GPGGA,195128.000,3010.4637406,N,09630.6244665,W,5,16,0.7,104.906,M,-24.900,M,1.000,0000*40
$GNGSA,A,3,04,07,08,09,30,,,,,,,,1.6,0.7,1.4,1*35
$GNGSA,A,3,07,19,27,,,,,,,,,,1.6,0.7,1.4,3*3C
$GNGSA,A,3,11,23,25,32,34,37,41,43,,,,,1.6,0.7,1.4,4*37
$GNGSA,A,3,,,,,,,,,,,,,1.6,0.7,1.4,6*33
$GPGSV,3,1,10,09,72,235,52,08,64,110,44,04,46,163,16,07,46,324,46,1*65
$GPGSV,3,2,10,27,36,053,,30,20,304,39,14,17,249,,16,13,049,,1*6A
$GPGSV,3,3,10,21,09,135,,193,00,000,23,1*52
$GPGSV,2,1,05,09,72,235,43,08,64,110,37,04,46,163,24,30,20,304,34,8*6F
$GPGSV,2,2,05,193,00,000,17,8*65
$GAGSV,3,1,09,27,63,009,48,21,46,264,,07,38,161,31,19,33,315,33,7*7B
$GAGSV,3,2,09,30,17,050,,15,08,104,,34,02,058,,13,02,152,,7*7C
$GAGSV,3,3,09,20,00,000,41,7*4D
$GAGSV,1,1,04,27,63,009,43,07,38,161,22,19,33,315,30,20,00,000,10,1*7A
$GBGSV,3,1,10,23,58,342,51,32,40,272,34,43,38,123,29,25,38,059,46,1*78
$GBGSV,3,2,10,11,34,092,29,41,31,203,23,34,27,066,45,37,22,285,40,1*7A
$GBGSV,3,3,10,12,10,043,,28,09,179,,1*7E
$GBGSV,2,1,07,23,58,342,44,32,40,272,29,43,38,123,26,25,38,059,41,5*7B
$GBGSV,2,2,07,41,31,203,18,34,27,066,37,37,22,285,32,5*46
$GNGLL,3010.4637406,N,09630.6244665,W,195128.000,A,D*5D
$GNRMC,195128.000,A,3010.4637406,N,09630.6244665,W,000.1,000.0,301223,,,F,V*12
$GNVTG,000.0,T,,M,000.1,N,000.2,K,D*15
$GNZDA,195128.000,30,12,2023,00,00*4D
$PSTI,030,195128.000,A,3010.4637406,N,09630.6244665,W,104.906,0.01,-0.06,-0.00,301223,F,1.000,1.000*00
$PSTI,032,195128.000,301223,A,F,0.242,2.245,2.848,3.634,6.15,16.38,,,,*22
$PSTI,033,195128.000,301223,2,R,0,G,0,,0,,C,0,,0,,E,0,,0,,R,,,,,I,0,,,*21
$PSTI,033,195128.000,301223,2,B,0,G,0,,0,,C,0,,0,,E,0,,0,,R,,,,,I,0,,,*31
$GPGGA,195129.000,3010.4638271,N,09630.6245033,W,5,16,0.7,105.006,M,-24.900,M,1.000,0000*44
$GNGSA,A,3,04,07,08,09,30,,,,,,,,1.6,0.7,1.4,1*35
$GNGSA,A,3,07,19,27,,,,,,,,,,1.6,0.7,1.4,3*3C
$GNGSA,A,3,11,23,25,32,34,37,41,43,,,,,1.6,0.7,1.4,4*37
$GNGSA,A,3,,,,,,,,,,,,,1.6,0.7,1.4,6*33
$GNGLL,3010.4638271,N,09630.6245033,W,195129.000,A,D*51
$GNRMC,195129.000,A,3010.4638271,N,09630.6245033,W,000.1,000.0,301223,,,F,V*1E
$GNVTG,000.0,T,,M,000.1,N,000.2,K,D*15
$GNZDA,195129.000,30,12,2023,00,00*4C
$PSTI,030,195129.000,A,3010.4638271,N,09630.6245033,W,105.006,0.00,-0.07,-0.01,301223,F,1.000,1.000*05
$PSTI,032,195129.000,301223,A,F,0.183,2.405,2.948,3.809,4.34,13.85,,,,*2C
$PSTI,033,195129.000,301223,2,R,0,G,0,,0,,C,0,,0,,E,0,,0,,R,,,,,I,0,,,*20
$PSTI,033,195129.000,301223,2,B,0,G,0,,0,,C,0,,0,,E,0,,0,,R,,,,,I,0,,,*30
$GPGGA,195130.000,3010.4638847,N,09630.6245314,W,5,16,0.7,105.069,M,-24.900,M,1.000,0000*4C
$GNGSA,A,3,04,07,08,09,30,,,,,,,,1.6,0.7,1.4,1*35
$GNGSA,A,3,07,19,27,,,,,,,,,,1.6,0.7,1.4,3*3C
$GNGSA,A,3,11,23,25,32,34,37,41,43,,,,,1.6,0.7,1.4,4*37
$GNGSA,A,3,,,,,,,,,,,,,1.6,0.7,1.4,6*33
$GNGLL,3010.4638847,N,09630.6245314,W,195130.000,A,D*50
$GNRMC,195130.000,A,3010.4638847,N,09630.6245314,W,000.1,000.0,301223,,,F,V*1F
$GNVTG,000.0,T,,M,000.1,N,000.2,K,D*15
$GNZDA,195130.000,30,12,2023,00,00*44
$PSTI,030,195130.000,A,3010.4638847,N,09630.6245314,W,105.069,-0.00,-0.07,0.00,301223,F,1.000,1.000*0C
$PSTI,032,195130.000,301223,A,F,0.138,2.511,3.011,3.923,3.14,13.29,,,,*2E
$PSTI,033,195130.000,301223,2,R,0,G,0,,0,,C,0,,0,,E,0,,0,,R,,,,,I,0,,,*28
$PSTI,033,195130.000,301223,2,B,0,G,0,,0,,C,0,,0,,E,0,,0,,R,,,,,I,0,,,*38
$GPGGA,195131.000,3010.4639521,N,09630.6245852,W,5,16,0.7,105.136,M,-24.900,M,1.000,0000*43
$GNGSA,A,3,04,07,08,09,30,,,,,,,,1.6,0.7,1.4,1*35
$GNGSA,A,3,07,19,27,,,,,,,,,,1.6,0.7,1.4,3*3C
$GNGSA,A,3,11,23,25,32,34,37,41,43,,,,,1.6,0.7,1.4,4*37
$GNGSA,A,3,,,,,,,,,,,,,1.6,0.7,1.4,6*33
$GPGSV,3,1,10,09,72,235,52,08,64,110,44,04,46,163,12,07,46,324,46,1*61
$GPGSV,3,2,10,27,36,053,,30,20,304,39,14,17,249,,16,13,049,,1*6A
$GPGSV,3,3,10,21,09,135,,02,06,145,,1*6C
$GPGSV,1,1,04,09,72,235,43,08,64,110,37,04,46,163,24,30,20,304,34,8*6D
$GAGSV,3,1,09,27,63,009,48,21,46,265,,07,38,161,31,19,34,315,33,7*7D
$GAGSV,3,2,09,30,17,050,,15,08,104,,13,02,152,,34,02,058,,7*7C
$GAGSV,3,3,09,20,00,000,41,7*4D
$GAGSV,1,1,04,27,63,009,43,07,38,161,22,19,34,315,30,20,00,000,07,1*7B
$GBGSV,3,1,10,23,58,342,51,32,40,272,33,43,38,123,29,25,38,059,46,1*7F
$GBGSV,3,2,10,11,34,092,29,41,31,203,23,34,27,066,44,37,22,285,40,1*7B
$GBGSV,3,3,10,12,10,043,,28,09,179,,1*7E
$GBGSV,2,1,07,23,58,342,44,32,40,272,29,43,38,123,25,25,38,059,41,5*78
$GBGSV,2,2,07,41,31,203,20,34,27,066,37,37,22,285,33,5*4C
$GNGLL,3010.4639521,N,09630.6245852,W,195131.000,A,D*54
$GNRMC,195131.000,A,3010.4639521,N,09630.6245852,W,000.1,000.0,301223,,,F,V*1B
$GNVTG,000.0,T,,M,000.1,N,000.1,K,D*16
$GNZDA,195131.000,30,12,2023,00,00*45
$PSTI,030,195131.000,A,3010.4639521,N,09630.6245852,W,105.136,0.01,-0.04,0.01,301223,F,1.000,1.000*2D
$PSTI,032,195131.000,301223,A,F,0.051,2.636,3.078,4.052,1.11,14.75,,,,*29
$PSTI,033,195131.000,301223,2,R,1,G,0,,0,,C,1,,0,,E,0,,0,,R,,,,,I,0,,,*29
$PSTI,033,195131.000,301223,2,B,0,G,0,,0,,C,0,,0,,E,0,,0,,R,,,,,I,0,,,*39
$GPGGA,195132.000,3010.4640373,N,09630.6246173,W,5,16,0.7,105.202,M,-24.900,M,1.000,0000*42
$GNGSA,A,3,04,07,08,09,30,,,,,,,,1.6,0.7,1.4,1*35
$GNGSA,A,3,07,19,27,,,,,,,,,,1.6,0.7,1.4,3*3C
$GNGSA,A,3,11,23,25,32,34,37,41,43,,,,,1.6,0.7,1.4,4*37
$GNGSA,A,3,,,,,,,,,,,,,1.6,0.7,1.4,6*33
$GNGLL,3010.4640373,N,09630.6246173,W,195132.000,A,D*51
$GNRMC,195132.000,A,3010.4640373,N,09630.6246173,W,000.1,000.0,301223,,,F,V*1E
$GNVTG,000.0,T,,M,000.1,N,000.2,K,D*15
$GNZDA,195132.000,30,12,2023,00,00*46
$PSTI,030,195132.000,A,3010.4640373,N,09630.6246173,W,105.202,0.01,-0.05,0.01,301223,F,1.000,1.000*2D
$PSTI,032,195132.000,301223,A,F,-0.000,2.793,3.144,4.206,359.99,12.58,,,,*07
$PSTI,033,195132.000,301223,2,R,0,G,0,,0,,C,0,,0,,E,0,,0,,R,,,,,I,0,,,*2A
$PSTI,033,195132.000,301223,2,B,0,G,0,,0,,C,0,,0,,E,0,,0,,R,,,,,I,0,,,*3A
$GPGGA,195133.000,3010.4640938,N,09630.6246477,W,5,16,0.7,105.266,M,-24.900,M,1.000,0000*45
$GNGSA,A,3,04,07,08,09,30,,,,,$GPGGA,195138.000,3010.4644168,N,09630.6248857,W,5,16,0.7,105.580,M,-24.900,M,1.000,0000*48
$GNGSA,A,3,04,07,08,09,30,,,,,,,,1.6,0.7,1.4,1*35
$GNGSA,A,3,07,19,27,,,,,,,,,,1.6,0.7,1.4,3*3C
$GNGSA,A,3,11,23,25,32,34,37,41,43,,,,,1.6,0.7,1.4,4*37
$GNGSA,A,3,,,,,,,,,,,,,1.6,0.7,1.4,6*33
$GNGLL,3010.4644168,N,09630.6248857,W,195138.000,A,D*56
$GNRMC,195138.000,A,3010.4644168,N,09630.6248857,W,000.1,000.0,301223,,,F,V*19
$GNVTG,000.0,T,,M,000.1,N,000.2,K,D*15
$GNZDA,195138.000,30,12,2023,00,00*4C
$PSTI,030,195138.000,A,3010.4644168,N,09630.6248857,W,105.580,-0.00,-0.06,0.01,301223,F,1.000,1.000*08
$PSTI,032,195138.000,301223,A,F,-0.431,3.494,3.522,4.980,352.97,10.66,,,,*05
$PSTI,033,195138.000,301223,2,R,0,G,0,,0,,C,0,,0,,E,0,,0,,R,,,,,I,0,,,*20
$PSTI,033,195138.000,301223,2,B,0,G,0,,0,,C,0,,0,,E,0,,0,,R,,,,,I,0,,,*30
$GPGGA,195139.000,3010.4644610,N,09630.6249239,W,5,16,0.7,105.609,M,-24.900,M,1.000,0000*40
$GNGSA,A,3,04,07,08,09,30,,,,,,,,1.6,0.7,1.4,1*35
$GNGSA,A,3,07,19,27,,,,,,,,,,1.6,0.7,1.4,3*3C
$GNGSA,A,3,11,23,25,32,34,37,41,43,,,,,1.6,0.7,1.4,4*37
$GNGSA,A,3,,,,,,,,,,,,,1.6,0.7,1.4,6*33
$GNGLL,3010.4644610,N,09630.6249239,W,195139.000,A,D*5C
$GNRMC,195139.000,A,3010.4644610,N,09630.6249239,W,000.1,000.0,301223,,,F,V*13
$GNVTG,000.0,T,,M,000.1,N,000.2,K,D*15
$GNZDA,195139.000,30,12,2023,00,00*4D
$PSTI,030,195139.000,A,3010.4644610,N,09630.6249239,W,105.609,0.00,-0.05,0.01,301223,F,1.000,1.000*2E
$PSTI,032,195139.000,301223,A,F,-0.493,3.576,3.551,5.064,352.16,10.35,,,,*08
$PSTI,033,195139.000,301223,2,R,0,G,0,,0,,C,0,,0,,E,0,,0,,R,,,,,I,0,,,*21
$PSTI,033,195139.000,301223,2,B,0,G,0,,0,,C,0,,0,,E,0,,0,,R,,,,,I,0,,,*31
$GPGGA,195140.000,3010.4645043,N,09630.6249774,W,5,16,0.7,105.666,M,-24.900,M,1.000,0000*4A
$GNGSA,A,3,04,07,08,09,30,,,,,,,,1.6,0.7,1.4,1*35
$GNGSA,A,3,07,19,27,,,,,,,,,,1.6,0.7,1.4,3*3C
$GNGSA,A,3,11,23,25,32,34,37,41,43,,,,,1.6,0.7,1.4,4*37
$GNGSA,A,3,,,,,,,,,,,,,1.6,0.7,1.4,6*33
$GPGSV,3,1,10,09,72,235,52,08,64,110,44,04,46,163,04,07,46,324,46,1*66
$GPGSV,3,2,10,27,36,053,,30,20,304,39,14,17,249,,16,13,049,,1*6A
$GPGSV,3,3,10,21,09,135,,02,06,145,,1*6C
$GPGSV,1,1,04,09,72,235,44,08,64,110,37,04,46,163,24,30,20,304,34,8*6A
$GAGSV,3,1,09,27,62,010,48,21,46,265,,07,38,161,31,19,34,315,32,7*75
$GAGSV,3,2,09,30,17,050,,15,08,104,,34,03,058,,13,02,152,,7*7D
$GAGSV,3,3,09,20,00,000,41,7*4D
$GAGSV,1,1,04,27,62,010,43,07,38,161,23,19,34,315,30,20,00,000,09,1*7D
$GBGSV,3,1,10,23,58,342,51,32,40,272,32,43,38,123,31,25,38,059,47,1*76
$GBGSV,3,2,10,11,34,092,27,41,31,203,23,34,27,066,45,37,22,285,40,1*74
$GBGSV,3,3,10,12,10,043,,20,09,320,,1*78
$GBGSV,2,1,07,23,58,342,44,32,40,272,29,43,38,123,26,25,38,059,42,5*78
$GBGSV,2,2,07,41,31,203,20,34,27,066,37,37,22,285,33,5*4C
$GNGLL,3010.4645043,N,09630.6249774,W,195140.000,A,D*5F
$GNRMC,195140.000,A,3010.4645043,N,09630.6249774,W,000.1,000.0,301223,,,F,V*10
$GNVTG,000.0,T,,M,000.1,N,000.2,K,D*15
$GNZDA,195140.000,30,12,2023,00,00*43
$PSTI,030,195140.000,A,3010.4645043,N,09630.6249774,W,105.666,0.00,-0.06,0.01,301223,F,1.000,1.000*27
$PSTI,032,195140.000,301223,A,F,-0.578,3.656,3.608,5.169,351.01,11.73,,,,*06
$PSTI,033,195140.000,301223,2,R,0,G,0,,0,,C,0,,0,,E,0,,0,,R,,,,,I,0,,,*2F
$PSTI,033,195140.000,301223,2,B,0,G,0,,0,,C,0,,0,,E,0,,0,,R,,,,,I,0,,,*3F
$GPGGA,195141.000,3010.4645797,N,09630.6250087,W,5,16,0.7,105.742,M,-24.900,M,1.000,0000*41
$GNGSA,A,3,04,07,08,09,30,,,,,,,,1.6,0.7,1.4,1*35
$GNGSA,A,3,07,19,27,,,,,,,,,,1.6,0.7,1.4,3*3C
$GNGSA,A,3,11,23,25,32,34,37,41,43,,,,,1.6,0.7,1.4,4*37
$GNGSA,A,3,,,,,,,,,,,,,1.6,0.7,1.4,6*33
$GNGLL,3010.4645797,N,09630.6250087,W,195141.000,A,D*53
$GNRMC,195141.000,A,3010.4645797,N,09630.6250087,W,000.1,000.0,301223,,,F,V*1C
$GNVTG,000.0,T,,M,000.1,N,000.2,K,D*15
$GNZDA,195141.000,30,12,2023,00,00*42
$PSTI,030,195141.000,A,3010.4645797,N,09630.6250087,W,105.742,0.01,-0.06,0.00,301223,F,1.000,1.000*2C
$PSTI,032,195141.000,301223,A,F,-0.629,3.795,3.684,5.327,350.60,9.98,,,,*38
$PSTI,033,195141.000,301223,2,R,0,G,0,,0,,C,0,,0,,E,0,,0,,R,,,,,I,0,,,*2E
$PSTI,033,195141.000,301223,2,B,0,G,0,,0,,C,0,,0,,E,0,,0,,R,,,,,I,0,,,*3E
$GPGGA,195142.000,3010.4646142,N,09630.6250406,W,5,16,0.7,105.784,M,-24.900,M,1.000,0000*48
$GNGSA,A,3,04,07,08,09,30,,,,,,,,1.6,0.7,1.4,1*35
$GNGSA,A,3,07,19,27,,,,,,,,,,1.6,0.7,1.4,3*3C
$GNGSA,A,3,11,23,25,32,34,37,41,43,,,,,1.6,0.7,1.4,4*37
$GNGSA,A,3,,,,,,,,,,,,,1.6,0.7,1.4,6*33
$GNGLL,3010.4646142,N,09630.6250406,W,195142.000,A,D*50
$GNRMC,195142.000,A,3010.4646142,N,09630.6250406,W,000.1,000.0,301223,,,F,V*1F
$GNVTG,000.0,T,,M,000.1,N,000.2,K,D*15
$GNZDA,195142.000,30,12,2023,00,00*41
$PSTI,030,195142.000,A,3010.4646142,N,09630.6250406,W,105.784,0.01,-0.06,0.01,301223,F,1.000,1.000*24
$PSTI,032,195142.000,301223,A,F,-0.680,3.859,3.726,5.407,350.01,9.70,,,,*3A
$PSTI,033,195142.000,301223,2,R,0,G,0,,0,,C,0,,0,,E,0,,0,,R,,,,,I,0,,,*2D
$PSTI,033,195142.000,301223,2,B,0,G,0,,0,,C,0,,0,,E,0,,0,,R,,,,,I,0,,,*3D
$GPGGA,195143.000,3010.4646555,N,09630.6250859,W,5,16,0.7,105.848,M,-24.900,M,1.000,0000*42
$GNGSA,A,3,04,07,08,09,30,,,,,,,,1.6,0.7,1.4,1*35
$GNGSA,A,3,07,19,27,,,,,,,,,,1.6,0.7,1.4,3*3C
$GNGSA,A,3,11,23,25,32,34,37,41,43,,,,,1.6,0.7,1.4,4*37
$GNGSA,A,3,,,,,,,,,,,,,1.6,0.7,1.4,6*33
$GPGSV,3,1,10,09,72,235,52,08,64,110,43,04,46,163,03,07,46,324,46,1*66
$GPGSV,3,2,10,27,36,053,,30,20,304,39,14,17,249,,16,13,049,,1*6A
$GPGSV,3,3,10,21,09,135,,02,07,145,,1*6D
$GPGSV,1,1,04,09,72,235,43,08,64,110,37,04,46,163,24,30,20,304,34,8*6D
$GAGSV,3,1,09,27,62,010,48,21,46,265,,07,38,161,32,19,34,315,33,7*77
$GAGSV,3,2,09,30,17,050,,15,08,104,,34,03,058,,13,02,152,,7*7D
$GAGSV,3,3,09,20,00,000,41,7*4D
$GAGSV,1,1,04,27,62,010,43,07,38,161,23,19,34,315,30,20,00,000,13,1*76
$GBGSV,3,1,10,23,58,342,52,32,40,272,32,43,38,123,31,25,38,059,47,1*75
$GBGSV,3,2,10,11,34,092,27,41,31,203,25,34,27,066,44,37,22,285,40,1*73
$GBGSV,3,3,10,12,10,043,,20,09,320,,1*78
$GBGSV,2,1,07,23,58,342,44,32,40,272,29,43,38,123,26,25,38,059,42,5*78
$GBGSV,2,2,07,41,31,203,21,34,27,066,37,37,22,285,32,5*4C
$GNGLL,3010.4646555,N,09630.6250859,W,195143.000,A,D*55
$GNRMC,195143.000,A,3010.4646555,N,09630.6250859,W,000.1,000.0,301223,,,F,V*1A
$GNVTG,000.0,T,,M,000.1,N,000.2,K,D*15
$GNZDA,195143.000,30,12,2023,00,00*40
$PSTI,030,195143.000,A,3010.4646555,N,09630.6250859,W,105.848,-0.00,-0.04,0.01,301223,F,1.000,1.000*00
$PSTI,032,195143.000,301223,A,F,-0.753,3.936,3.790,5.515,349.18,11.01,,,,*0C
$PSTI,033,195143.000,301223,2,R,0,G,0,,0,,C,0,,0,,E,0,,0,,R,,,,,I,0,,,*2C
$PSTI,033,195143.000,301223,2,B,0,G,0,,0,,C,0,,0,,E,0,,0,,R,,,,,I,0,,,*3C
$GPGGA,195144.000,3010.4647211,N,09630.6251205,W,5,15,0.7,105.913,M,-24.900,M,1.000,0000*4D
$GNGSA,A,3,07,08,09,30,,,,,,,,,1.6,0.7,1.4,1*31
$GNGSA,A,3,07,19,27,,,,,,,,,,1.6,0.7,1.4,3*3C
$GNGSA,A,3,11,23,25,32,34,37,41,43,,,,,1.6,0.7,1.4,4*37
$GNGSA,A,3,,,,,,,,,,,,,1.6,0.7,1.4,6*33
$GNGLL,3010.4647211,N,09630.6251205,W,195144.000,A,D*56
$GNRMC,195144.000,A,3010.4647211,N,09630.6251205,W,000.1,000.0,301223,,,F,V*19
$GNVTG,000.0,T,,M,000.1,N,000.2,K,D*15
$GNZDA,195144.000,30,12,2023,00,00*47
$PSTI,030,195144.000,A,3010.4647211,N,09630.6251205,W,105.913,0.00,-0.04,0.01,301223,F,1.000,1.000*21
$$GPGGA,195150.000,3010.4649251,N,09630.6252879,W,5,15,0.7,106.167,M,-24.900,M,1.000,0000*48
$GNGSA,A,3,07,08,09,30,,,,,,,,,1.6,0.7,1.4,1*31
$GNGSA,A,3,07,19,27,,,,,,,,,,1.6,0.7,1.4,3*3C
$GNGSA,A,3,11,23,25,32,34,37,41,43,,,,,1.6,0.7,1.4,4*37
$GNGSA,A,3,,,,,,,,,,,,,1.6,0.7,1.4,6*33
$GNGLL,3010.4649251,N,09630.6252879,W,195150.000,A,D*5B
$GNRMC,195150.000,A,3010.4649251,N,09630.6252879,W,000.1,000.0,301223,,,F,V*14
$GNVTG,000.0,T,,M,000.1,N,000.2,K,D*15
$GNZDA,195150.000,30,12,2023,00,00*42
$PSTI,030,195150.000,A,3010.4649251,N,09630.6252879,W,106.167,0.00,-0.04,0.01,301223,F,1.000,1.000*24
$PSTI,032,195150.000,301223,A,F,-1.077,4.434,4.109,6.140,346.35,8.68,,,,*37
$PSTI,033,195150.000,301223,2,R,0,G,0,,0,,C,0,,0,,E,0,,0,,R,,,,,I,0,,,*2E
$PSTI,033,195150.000,301223,2,B,1,G,0,,0,,C,0,,0,,E,1,,0,,R,,,,,I,0,,,*3E
$GPGGA,195151.000,3010.4649452,N,09630.6253084,W,5,16,0.7,106.193,M,-24.900,M,1.000,0000*4F
$GNGSA,A,3,04,07,08,09,30,,,,,,,,1.6,0.7,1.4,1*35
$GNGSA,A,3,07,19,27,,,,,,,,,,1.6,0.7,1.4,3*3C
$GNGSA,A,3,11,23,25,32,34,37,41,43,,,,,1.6,0.7,1.4,4*37
$GNGSA,A,3,,,,,,,,,,,,,1.6,0.7,1.4,6*33
$GNGLL,3010.4649452,N,09630.6253084,W,195151.000,A,D*54
$GNRMC,195151.000,A,3010.4649452,N,09630.6253084,W,000.1,000.0,301223,,,F,V*1B
$GNVTG,000.0,T,,M,000.1,N,000.2,K,D*15
$GNZDA,195151.000,30,12,2023,00,00*43
$PSTI,030,195151.000,A,3010.4649452,N,09630.6253084,W,106.193,0.00,-0.06,0.01,301223,F,1.000,1.000*22
$PSTI,032,195151.000,301223,A,F,-1.110,4.471,4.135,6.190,346.06,8.49,,,,*36
$PSTI,033,195151.000,301223,2,R,0,G,0,,0,,C,0,,0,,E,0,,0,,R,,,,,I,0,,,*2F
$PSTI,033,195151.000,301223,2,B,1,G,0,,0,,C,0,,0,,E,1,,0,,R,,,,,I,0,,,*3F
$GPGGA,195152.000,3010.4649603,N,09630.6253359,W,5,16,0.7,106.226,M,-24.900,M,1.000,0000*44
$GNGSA,A,3,04,07,08,09,30,,,,,,,,1.6,0.7,1.4,1*35
$GNGSA,A,3,07,19,27,,,,,,,,,,1.6,0.7,1.4,3*3C
$GNGSA,A,3,11,23,25,32,34,37,41,43,,,,,1.6,0.7,1.4,4*37
$GNGSA,A,3,,,,,,,,,,,,,1.6,0.7,1.4,6*33
$GPGSV,3,1,10,09,72,232,52,08,64,108,44,07,47,324,46,04,46,163,23,1*6C
$GPGSV,3,2,10,27,36,053,,30,20,304,39,14,17,249,,16,13,049,,1*6A
$GPGSV,3,3,10,21,09,135,,02,07,145,,1*6D
$GPGSV,1,1,04,09,72,232,44,08,64,108,38,04,46,163,22,30,20,304,34,8*6D
$GAGSV,3,1,09,27,62,010,48,21,46,265,,07,38,161,31,19,34,315,32,7*75
$GAGSV,3,2,09,30,17,050,,15,08,104,,34,03,058,,13,02,152,,7*7D
$GAGSV,3,3,09,20,00,000,41,7*4D
$GAGSV,1,1,04,27,62,010,43,07,38,161,23,19,34,315,30,20,00,000,07,1*73
$GBGSV,3,1,10,23,58,342,52,32,40,272,32,43,38,123,32,25,38,059,47,1*76
$GBGSV,3,2,10,11,34,092,27,41,31,203,26,34,27,066,44,37,22,285,39,1*7E
$GBGSV,3,3,10,12,10,043,,20,09,320,,1*78
$GBGSV,2,1,07,23,58,342,44,32,40,272,29,43,38,123,26,25,38,059,42,5*78
$GBGSV,2,2,07,41,31,203,21,34,27,066,37,37,22,285,32,5*4C
$GNGLL,3010.4649603,N,09630.6253359,W,195152.000,A,D*52
$GNRMC,195152.000,A,3010.4649603,N,09630.6253359,W,000.1,000.0,301223,,,F,V*1D
$GNVTG,000.0,T,,M,000.1,N,000.2,K,D*15
$GNZDA,195152.000,30,12,2023,00,00*40
$PSTI,030,195152.000,A,3010.4649603,N,09630.6253359,W,106.226,0.01,-0.05,0.01,301223,F,1.000,1.000*2B
$PSTI,032,195152.000,301223,A,F,-1.154,4.499,4.168,6.240,345.61,9.75,,,,*39
$PSTI,033,195152.000,301223,2,R,0,G,0,,0,,C,0,,0,,E,0,,0,,R,,,,,I,0,,,*2C
$PSTI,033,195152.000,301223,2,B,0,G,0,,0,,C,0,,0,,E,0,,0,,R,,,,,I,0,,,*3C
$GPGGA,195153.000,3010.4650029,N,09630.6253559,W,5,16,0.7,106.270,M,-24.900,M,1.000,0000*46
$GNGSA,A,3,04,07,08,09,30,,,,,,,,1.6,0.7,1.4,1*35
$GNGSA,A,3,07,19,27,,,,,,,,,,1.6,0.7,1.4,3*3C
$GNGSA,A,3,11,23,25,32,34,37,41,43,,,,,1.6,0.7,1.4,4*37
$GNGSA,A,3,,,,,,,,,,,,,1.6,0.7,1.4,6*33
$GNGLL,3010.4650029,N,09630.6253559,W,195153.000,A,D*53
$GNRMC,195153.000,A,3010.4650029,N,09630.6253559,W,000.1,000.0,301223,,,F,V*1C
$GNVTG,000.0,T,,M,000.1,N,000.2,K,D*15
$GNZDA,195153.000,30,12,2023,00,00*41
$PSTI,030,195153.000,A,3010.4650029,N,09630.6253559,W,106.270,0.00,-0.05,0.01,301223,F,1.000,1.000*28
$PSTI,032,195153.000,301223,A,F,-1.186,4.577,4.212,6.332,345.47,8.42,,,,*3D
$PSTI,033,195153.000,301223,2,R,0,G,0,,0,,C,0,,0,,E,0,,0,,R,,,,,I,0,,,*2D
$PSTI,033,195153.000,301223,2,B,1,G,0,,0,,C,0,,0,,E,1,,0,,R,,,,,I,0,,,*3D
$GPGGA,195154.000,3010.4650157,N,09630.6253697,W,5,16,0.7,106.314,M,-24.900,M,1.000,0000*4B
$GNGSA,A,3,04,07,08,09,30,,,,,,,,1.6,0.7,1.4,1*35
$GNGSA,A,3,07,19,27,,,,,,,,,,1.6,0.7,1.4,3*3C
$GNGSA,A,3,11,23,25,32,34,37,41,43,,,,,1.6,0.7,1.4,4*37
$GNGSA,A,3,,,,,,,,,,,,,1.6,0.7,1.4,6*33
$GNGLL,3010.4650157,N,09630.6253697,W,195154.000,A,D*5D
$GNRMC,195154.000,A,3010.4650157,N,09630.6253697,W,000.1,000.0,301223,,,F,V*12
$GNVTG,000.0,T,,M,000.1,N,000.2,K,D*15
$GNZDA,195154.000,30,12,2023,00,00*46
$PSTI,030,195154.000,A,3010.4650157,N,09630.6253697,W,106.314,0.01,-0.06,0.01,301223,F,1.000,1.000*27
$PSTI,032,195154.000,301223,A,F,-1.208,4.601,4.256,6.383,345.29,8.24,,,,*3F
$PSTI,033,195154.000,301223,2,R,0,G,0,,0,,C,0,,0,,E,0,,0,,R,,,,,I,0,,,*2A
$PSTI,033,195154.000,301223,2,B,1,G,0,,0,,C,0,,0,,E,1,,0,,R,,,,,I,0,,,*3A
$GPGGA,195155.000,3010.4650156,N,09630.6253908,W,5,16,0.7,106.339,M,-24.900,M,1.000,0000*4D
$GNGSA,A,3,04,07,08,09,30,,,,,,,,1.6,0.7,1.4,1*35
$GNGSA,A,3,07,19,27,,,,,,,,,,1.6,0.7,1.4,3*3C
$GNGSA,A,3,11,23,25,32,34,37,41,43,,,,,1.6,0.7,1.4,4*37
$GNGSA,A,3,,,,,,,,,,,,,1.6,0.7,1.4,6*33
$GPGSV,3,1,10,09,72,232,52,08,64,108,44,07,47,324,46,04,46,163,22,1*6D
$GPGSV,3,2,10,27,36,053,,30,20,304,39,14,18,249,,16,13,049,,1*65
$GPGSV,3,3,10,21,09,135,,02,07,145,,1*6D
$GPGSV,1,1,04,09,72,232,44,08,64,108,38,04,46,163,15,30,20,304,34,8*69
$GAGSV,3,1,09,27,62,010,48,21,46,265,,07,38,161,31,19,34,315,32,7*75
$GAGSV,3,2,09,30,17,050,,15,08,104,,34,03,058,,13,02,152,,7*7D
$GAGSV,3,3,09,20,00,000,41,7*4D
$GAGSV,1,1,04,27,62,010,43,07,38,161,22,19,34,315,30,20,00,000,05,1*70
$GBGSV,3,1,10,23,58,342,52,32,40,272,32,43,38,123,32,25,38,059,47,1*76
$GBGSV,3,2,10,11,34,092,27,41,31,203,27,34,27,066,44,37,22,285,39,1*7F
$GBGSV,3,3,10,12,10,043,,20,09,320,,1*78
$GBGSV,2,1,07,23,58,342,45,32,40,272,29,43,38,123,25,25,38,059,42,5*7A
$GBGSV,2,2,07,41,31,203,22,34,27,066,37,37,22,285,32,5*4F
$GNGLL,3010.4650156,N,09630.6253908,W,195155.000,A,D*54
$GNRMC,195155.000,A,3010.4650156,N,09630.6253908,W,000.1,000.0,301223,,,F,V*1B
$GNVTG,000.0,T,,M,000.1,N,000.2,K,D*15
$GNZDA,195155.000,30,12,2023,00,00*47
$PSTI,030,195155.000,A,3010.4650156,N,09630.6253908,W,106.339,0.00,-0.06,0.01,301223,F,1.000,1.000*20
$PSTI,032,195155.000,301223,A,F,-1.242,4.601,4.281,6.406,344.89,9.51,,,,*38
$PSTI,033,195155.000,301223,2,R,0,G,0,,0,,C,0,,0,,E,0,,0,,R,,,,,I,0,,,*2B
$PSTI,033,195155.000,301223,2,B,1,G,0,,0,,C,0,,0,,E,1,,0,,R,,,,,I,0,,,*3B
$GPGGA,195156.000,3010.4650484,N,09630.6253959,W,5,16,0.7,106.354,M,-24.900,M,1.000,0000*4B
$GNGSA,A,3,04,07,08,09,30,,,,,,,,1.6,0.7,1.4,1*35
$GNGSA,A,3,07,19,27,,,,,,,,,,1.6,0.7,1.4,3*3C
$GNGSA,A,3,11,23,25,32,34,37,41,43,,,,,1.6,0.7,1.4,4*37
$GNGSA,A,3,,,,,,,,,,,,,1.6,0.7,1.4,6*33
$GNGLL,3010.4650484,N,09630.6253959,W,195156.000,A,D*59
$GNRMC,195156.000,A,3010.4650484,N,09630.6253959,W,000.1,000.0,301223,,,F,V*16
$GNVTG,000.0,T,,M,000.1,N,000.2,K,D*15
$GNZDA,195156.000,30,12,2023,00,00*44
$PSTI,030,195156.000,A,3010.4650484,N,09630.6253959,W,106.354,0.00,-0.05,0.01,301223,F,1.000,1.000*25
$PSTI,032,195156.000,301223,A,F,-1.250,4.661,4.296,6.461,344.99,8.25,,,,*3A
$PSTI,033,195156.000,301223,2,R,0,G,0,,0,,C,0,,0,,E,0,,0,,R,,,,,I,0,,,*28
$PSTI,033,195156.000,301223,2,B,1,G,0,,0,,C,0,,0,,E,1,,0,,R,,,,,I,0,,,*38
$GPGGA,195157.000,3010.4650486,N,09630.6253982,W,5,16,0.7,106.375,M,-24.900,M,1.000,0000*4D
$GNGSA,A,3,04,07,08,09,30,,,,,,,,1.6,0.7,1.4,1*35
$GNGSA,A,3,07,19,27,,,,,,,,,,1.6,0.7,1.4,3*3C
$GNGSA,A,3,11,23,25,32,34,37,41,43,,,,,1.6,0.7,1.4,4*37
$GNGSA,A,3,,,,,,,,,,,,,1.6,0.7,1.4,6*33
$GNGLL,3010.4650486,N,09630.6253982,W,195157.000,A,D*5C
$GNRMC,195157.000,A,3010.4650486,N,09630.6253982,W,000.1,000.0,301223,,,F,V*13
$GNVTG,000.0,T,,M,000.1,N,000.2,K,D*15
$GNZDA,195157.000,30,12,2023,00,00*45
$PSTI,030,195157.000,A,3010.4650486,N,09630.6253982,W,106.375,0.01,-0.06,0.01,301223,F,1.000,1.000*21$GPGGA,195203.000,3010.4650375,N,09630.6253934,W,5,16,0.7,106.598,M,-24.900,M,1.000,0000*4C
$GNGSA,A,3,04,07,08,09,30,,,,,,,,1.6,0.7,1.4,1*35
$GNGSA,A,3,07,19,27,,,,,,,,,,1.6,0.7,1.4,3*3C
$GNGSA,A,3,11,23,25,32,34,37,41,43,,,,,1.6,0.7,1.4,4*37
$GNGSA,A,3,,,,,,,,,,,,,1.6,0.7,1.4,6*33
$GNGLL,3010.4650375,N,09630.6253934,W,195203.000,A,D*58
$GNRMC,195203.000,A,3010.4650375,N,09630.6253934,W,000.1,000.0,301223,,,F,V*17
$GNVTG,000.0,T,,M,000.1,N,000.2,K,D*15
$GNZDA,195203.000,30,12,2023,00,00*47
$PSTI,030,195203.000,A,3010.4650375,N,09630.6253934,W,106.598,0.01,-0.04,0.01,301223,F,1.000,1.000*22
$PSTI,032,195203.000,301223,A,F,-1.246,4.641,4.540,6.611,344.97,7.95,,,,*3F
$PSTI,033,195203.000,301223,2,R,0,G,0,,0,,C,0,,0,,E,0,,0,,R,,,,,I,0,,,*2B
$PSTI,033,195203.000,301223,2,B,0,G,0,,0,,C,0,,0,,E,0,,0,,R,,,,,I,0,,,*3B
$GPGGA,195204.000,3010.4650006,N,09630.6253914,W,5,16,0.7,106.620,M,-24.900,M,1.000,0000*4E
$GNGSA,A,3,04,07,08,09,30,,,,,,,,1.6,0.7,1.4,1*35
$GNGSA,A,3,07,19,27,,,,,,,,,,1.6,0.7,1.4,3*3C
$GNGSA,A,3,11,23,25,32,34,37,41,43,,,,,1.6,0.7,1.4,4*37
$GNGSA,A,3,,,,,,,,,,,,,1.6,0.7,1.4,6*33
$GPGSV,3,1,10,09,72,232,52,08,64,108,44,07,47,324,46,04,46,163,20,1*6F
$GPGSV,3,2,10,27,36,053,,30,20,304,39,14,18,249,,16,13,049,,1*65
$GPGSV,3,3,10,21,09,134,,02,07,145,,1*6C
$GPGSV,1,1,04,09,72,232,44,08,64,108,37,04,46,163,06,30,20,304,34,8*64
$GAGSV,3,1,09,27,62,010,49,21,46,265,,07,38,161,31,19,34,315,32,7*74
$GAGSV,3,2,09,30,17,050,,15,08,104,,34,03,058,,13,02,152,,7*7D
$GAGSV,3,3,09,20,00,000,41,7*4D
$GAGSV,1,1,04,27,62,010,43,07,38,161,22,19,34,315,30,20,00,000,09,1*7C
$GBGSV,3,1,10,23,58,342,52,32,40,272,32,43,38,123,32,25,38,059,47,1*76
$GBGSV,3,2,10,11,34,092,29,41,31,203,28,34,27,066,45,37,22,285,38,1*7E
$GBGSV,3,3,10,12,10,043,,20,09,320,,1*78
$GBGSV,2,1,07,23,58,342,45,32,40,272,28,43,38,123,26,25,38,059,42,5*78
$GBGSV,2,2,07,41,31,203,21,34,27,066,38,37,22,285,32,5*43
$GNGLL,3010.4650006,N,09630.6253914,W,195204.000,A,D*5A
$GNRMC,195204.000,A,3010.4650006,N,09630.6253914,W,000.1,000.0,301223,,,F,V*15
$GNVTG,000.0,T,,M,000.1,N,000.2,K,D*15
$GNZDA,195204.000,30,12,2023,00,00*40
$PSTI,030,195204.000,A,3010.4650006,N,09630.6253914,W,106.620,0.00,-0.05,0.01,301223,F,1.000,1.000*20
$PSTI,032,195204.000,301223,A,F,-1.243,4.573,4.562,6.578,344.79,9.25,,,,*36
$PSTI,033,195204.000,301223,2,R,0,G,0,,0,,C,0,,0,,E,0,,0,,R,,,,,I,0,,,*2C
$PSTI,033,195204.000,301223,2,B,0,G,0,,0,,C,0,,0,,E,0,,0,,R,,,,,I,0,,,*3C
$GPGGA,195205.000,3010.4650020,N,09630.6253876,W,5,16,0.7,106.659,M,-24.900,M,1.000,0000*40
$GNGSA,A,3,04,07,08,09,30,,,,,,,,1.6,0.7,1.4,1*35
$GNGSA,A,3,07,19,27,,,,,,,,,,1.6,0.7,1.4,3*3C
$GNGSA,A,3,11,23,25,32,34,37,41,43,,,,,1.6,0.7,1.4,4*37
$GNGSA,A,3,,,,,,,,,,,,,1.6,0.7,1.4,6*33
$GNGLL,3010.4650020,N,09630.6253876,W,195205.000,A,D*5A
$GNRMC,195205.000,A,3010.4650020,N,09630.6253876,W,000.1,000.0,301223,,,F,V*15
$GNVTG,000.0,T,,M,000.1,N,000.1,K,D*16
$GNZDA,195205.000,30,12,2023,00,00*41
$PSTI,030,195205.000,A,3010.4650020,N,09630.6253876,W,106.659,0.00,-0.03,0.02,301223,F,1.000,1.000*2B
$PSTI,032,195205.000,301223,A,F,-1.237,4.576,4.601,6.606,344.87,8.07,,,,*3D
$PSTI,033,195205.000,301223,2,R,0,G,0,,0,,C,0,,0,,E,0,,0,,R,,,,,I,0,,,*2D
$PSTI,033,195205.000,301223,2,B,0,G,0,,0,,C,0,,0,,E,0,,0,,R,,,,,I,0,,,*3D
$GPGGA,195206.000,3010.4649792,N,09630.6253866,W,5,16,0.7,106.680,M,-24.900,M,1.000,0000*40
$GNGSA,A,3,04,07,08,09,30,,,,,,,,1.6,0.7,1.4,1*35
$GNGSA,A,3,07,19,27,,,,,,,,,,1.6,0.7,1.4,3*3C
$GNGSA,A,3,11,23,25,32,34,37,41,43,,,,,1.6,0.7,1.4,4*37
$GNGSA,A,3,,,,,,,,,,,,,1.6,0.7,1.4,6*33
$GNGLL,3010.4649792,N,09630.6253866,W,195206.000,A,D*5E
$GNRMC,195206.000,A,3010.4649792,N,09630.6253866,W,000.1,000.0,301223,,,F,V*11
$GNVTG,000.0,T,,M,000.1,N,000.2,K,D*15
$GNZDA,195206.000,30,12,2023,00,00*42
$PSTI,030,195206.000,A,3010.4649792,N,09630.6253866,W,106.680,0.01,-0.04,0.01,301223,F,1.000,1.000*2E
$PSTI,032,195206.000,301223,A,F,-1.235,4.534,4.622,6.591,344.76,7.98,,,,*31
$PSTI,033,195206.000,301223,2,R,0,G,0,,0,,C,0,,0,,E,0,,0,,R,,,,,I,0,,,*2E
$PSTI,033,195206.000,301223,2,B,0,G,0,,0,,C,0,,0,,E,0,,0,,R,,,,,I,0,,,*3E
$GPGGA,195207.000,3010.4649363,N,09630.6253830,W,5,16,0.7,106.703,M,-24.900,M,1.000,0000*42
$GNGSA,A,3,04,07,08,09,30,,,,,,,,1.6,0.7,1.4,1*35
$GNGSA,A,3,07,19,27,,,,,,,,,,1.6,0.7,1.4,3*3C
$GNGSA,A,3,11,23,25,32,34,37,41,43,,,,,1.6,0.7,1.4,4*37
$GNGSA,A,3,,,,,,,,,,,,,1.6,0.7,1.4,6*33
$GPGSV,3,1,10,09,72,232,52,08,64,108,44,07,47,324,46,04,46,163,22,1*6D
