$GPGGA,195944.000,3010.4642760,N,09630.6255392,W,5,14,0.8,112.350,M,-24.900,M,1.000,0000*4D
$GNGSA,A,3,07,08,09,14,30,,,,,,,,1.6,0.8,1.4,1*3B
$GNGSA,A,3,27,,,,,,,,,,,,1.6,0.8,1.4,3*3C
$GNGSA,A,3,11,23,25,32,34,37,41,43,,,,,1.6,0.8,1.4,4*38
$GNGSA,A,3,,,,,,,,,,,,,1.6,0.8,1.4,6*3C
$GNGLL,3010.4642760,N,09630.6255392,W,195944.000,A,D*53
$GNRMC,195944.000,A,3010.4642760,N,09630.6255392,W,000.1,000.0,301223,,,F,V*1C
$GNVTG,000.0,T,,M,000.1,N,000.2,K,D*15
$GNZDA,195944.000,30,12,2023,00,00*4F
$PSTI,030,195944.000,A,3010.4642760,N,09630.6255392,W,112.350,0.01,-0.06,0.01,301223,F,1.000,1.000*2C
$PSTI,032,195944.000,301223,A,F,-1.480,3.234,10.292,10.889,335.41,4.52,,,,*3A
$PSTI,033,195944.000,301223,2,R,0,G,0,,0,,C,0,,0,,E,0,,0,,R,,,,,I,0,,,*23
$PSTI,033,195944.000,301223,2,B,0,G,0,,0,,C,0,,0,,E,0,,0,,R,,,,,I,0,,,*33
$GPGGA,195945.000,3010.4642714,N,09630.6255500,W,5,14,1.0,112.326,M,-24.900,M,1.000,0000*4A
$GNGSA,A,3,07,08,09,14,30,,,,,,,,1.7,1.0,1.4,1*33
$GNGSA,A,3,27,,,,,,,,,,,,1.7,1.0,1.4,3*34
$GNGSA,A,3,11,23,25,32,34,37,41,43,,,,,1.7,1.0,1.4,4*30
$GNGSA,A,3,,,,,,,,,,,,,1.7,1.0,1.4,6*34
$GNGLL,3010.4642714,N,09630.6255500,W,195945.000,A,D*5C
$GNRMC,195945.000,A,3010.4642714,N,09630.6255500,W,000.1,000.0,301223,,,F,V*13
$GNVTG,000.0,T,,M,000.1,N,000.2,K,D*15
$GNZDA,195945.000,30,12,2023,00,00*4E
$PSTI,030,195945.000,A,3010.4642714,N,09630.6255500,W,112.326,0.01,-0.05,0.01,301223,F,1.000,1.000*21
$PSTI,032,195945.000,301223,A,F,-1.498,3.226,10.268,10.866,335.10,4.46,,,,*34
$PSTI,033,195945.000,301223,2,R,0,G,0,,0,,C,0,,0,,E,0,,0,,R,,,,,I,0,,,*22
$PSTI,033,195945.000,301223,2,B,0,G,0,,0,,C,0,,0,,E,0,,0,,R,,,,,I,0,,,*32
$GPGGA,195946.000,3010.4641974,N,09630.6256172,W,5,14,1.0,112.137,M,-24.900,M,1.000,0000*42
$GNGSA,A,3,07,08,09,14,30,,,,,,,,1.7,1.0,1.4,1*33
$GNGSA,A,3,27,,,,,,,,,,,,1.7,1.0,1.4,3*34
$GNGSA,A,3,11,23,25,32,34,37,41,43,,,,,1.7,1.0,1.4,4*30
$GNGSA,A,3,,,,,,,,,,,,,1.7,1.0,1.4,6*34
$GPGSV,3,1,10,09,70,224,48,08,65,100,47,07,49,327,45,04,42,164,24,1*62
$GPGSV,3,2,10,27,34,050,,30,22,306,39,14,20,252,37,21,11,132,,1*6A
$GPGSV,3,3,10,16,10,051,,02,09,142,,1*6B
$GPGSV,2,1,05,09,70,224,42,08,65,100,39,04,42,164,06,30,22,306,37,8*62
$GPGSV,2,2,05,14,20,252,24,8*5C
$GAGSV,3,1,09,27,60,014,48,21,47,269,,19,36,313,,07,35,162,,7*77
$GAGSV,3,2,09,30,15,052,,15,10,102,,13,04,150,,34,03,055,,7*7B
$GAGSV,3,3,09,20,00,000,42,7*4E
$GAGSV,1,1,02,27,60,014,41,20,00,000,07,1*71
$GBGSV,3,1,10,23,59,348,53,43,41,120,31,32,39,267,39,25,36,063,49,1*7A
$GBGSV,3,2,10,11,35,088,36,41,28,201,12,34,27,063,45,37,24,288,38,1*77
$GBGSV,3,3,10,28,12,178,,20,10,318,,1*79
$GBGSV,2,1,07,23,59,348,44,43,41,120,26,32,39,267,26,25,36,063,42,5*7C
$GBGSV,2,2,07,41,28,201,20,34,27,063,39,37,24,288,33,5*46
$GNGLL,3010.4641974,N,09630.6256172,W,195946.000,A,D*56
$GNRMC,195946.000,A,3010.4641974,N,09630.6256172,W,000.1,000.0,301223,,,F,V*19
$GNVTG,000.0,T,,M,000.1,N,000.2,K,D*15
$GNZDA,195946.000,30,12,2023,00,00*4D
$PSTI,030,195946.000,A,3010.4641974,N,09630.6256172,W,112.137,0.01,-0.06,0.00,301223,F,1.000,1.000*2B
$PSTI,032,195946.000,301223,A,F,-1.605,3.089,10.079,10.663,332.54,5.30,,,,*38
$PSTI,033,195946.000,301223,2,R,0,G,0,,0,,C,0,,0,,E,0,,0,,R,,,,,I,0,,,*21
$PSTI,033,195946.000,301223,2,B,0,G,0,,0,,C,0,,0,,E,0,,0,,R,,,,,I,0,,,*31
$GPGGA,195947.000,3010.4641688,N,09630.6256784,W,5,14,1.0,111.970,M,-24.900,M,1.000,0000*48
$GNGSA,A,3,07,08,09,14,30,,,,,,,,1.7,1.0,1.4,1*33
$GNGSA,A,3,27,,,,,,,,,,,,1.7,1.0,1.4,3*34
$GNGSA,A,3,11,23,25,32,34,37,41,43,,,,,1.7,1.0,1.4,4*30
$GNGSA,A,3,,,,,,,,,,,,,1.7,1.0,1.4,6*34
$GNGLL,3010.4641688,N,09630.6256784,W,195947.000,A,D*54
$GNRMC,195947.000,A,3010.4641688,N,09630.6256784,W,000.1,000.0,301223,,,F,V*1B
$GNVTG,000.0,T,,M,000.1,N,000.2,K,D*15
$GNZDA,195947.000,30,12,2023,00,00*4C
$PSTI,030,195947.000,A,3010.4641688,N,09630.6256784,W,111.970,0.01,-0.06,0.01,301223,F,1.000,1.000*20
$PSTI,032,195947.000,301223,A,F,-1.704,3.036,9.912,10.506,330.70,4.63,,,,*02
$PSTI,033,195947.000,301223,2,R,0,G,0,,0,,C,0,,0,,E,0,,0,,R,,,,,I,0,,,*20
$PSTI,033,195947.000,301223,2,B,0,G,0,,0,,C,0,,0,,E,0,,0,,R,,,,,I,0,,,*30
$GPGGA,195948.000,3010.4641226,N,09630.6257219,W,5,15,0.7,111.849,M,-24.900,M,1.000,0000*4B
$GNGSA,A,3,04,07,08,09,14,30,,,,,,,1.6,0.7,1.4,1*30
$GNGSA,A,3,27,,,,,,,,,,,,1.6,0.7,1.4,3*33
$GNGSA,A,3,11,23,25,32,34,37,41,43,,,,,1.6,0.7,1.4,4*37
$GNGSA,A,3,,,,,,,,,,,,,1.6,0.7,1.4,6*33
$GNGLL,3010.4641226,N,09630.6257219,W,195948.000,A,D*5B
$GNRMC,195948.000,A,3010.4641226,N,09630.6257219,W,000.1,000.0,301223,,,F,V*14
$GNVTG,000.0,T,,M,000.1,N,000.2,K,D*15
$GNZDA,195948.000,30,12,2023,00,00*43
$PSTI,030,195948.000,A,3010.4641226,N,09630.6257219,W,111.849,0.01,-0.06,0.01,301223,F,1.000,1.000*24
$PSTI,032,195948.000,301223,A,F,-1.774,2.951,9.791,10.379,328.99,4.59,,,,*0F
$PSTI,033,195948.000,301223,2,R,0,G,0,,0,,C,0,,0,,E,0,,0,,R,,,,,I,0,,,*2F
$PSTI,033,195948.000,301223,2,B,0,G,0,,0,,C,0,,0,,E,0,,0,,R,,,,,I,0,,,*3F
$GPGGA,195949.000,3010.4640723,N,09630.6257738,W,5,15,0.7,111.700,M,-24.900,M,1.000,0000*4F
$GNGSA,A,3,04,07,08,09,14,30,,,,,,,1.6,0.7,1.4,1*30
$GNGSA,A,3,27,,,,,,,,,,,,1.6,0.7,1.4,3*33
$GNGSA,A,3,11,23,25,32,34,37,41,43,,,,,1.6,0.7,1.4,4*37
$GNGSA,A,3,,,,,,,,,,,,,1.6,0.7,1.4,6*33
$GPGSV,3,1,10,09,70,224,48,08,65,100,47,07,49,327,45,04,42,164,27,1*61
$GPGSV,3,2,10,27,34,050,,30,22,306,39,14,20,252,37,21,11,132,,1*6A
$GPGSV,3,3,10,16,10,051,,02,09,142,,1*6B
$GPGSV,2,1,05,09,70,224,42,08,65,100,39,04,42,164,09,30,22,306,37,8*6D
$GPGSV,2,2,05,14,20,252,24,8*5C
$GAGSV,3,1,09,27,60,014,48,21,47,269,,19,36,313,,07,35,162,,7*77
$GAGSV,3,2,09,30,15,052,,15,10,102,,13,04,150,,34,03,055,,7*7B
$GAGSV,3,3,09,20,00,000,42,7*4E
$GAGSV,1,1,01,27,60,014,41,1*47
$GBGSV,3,1,10,23,59,348,53,43,41,120,32,32,39,267,39,25,36,063,49,1*79
$GBGSV,3,2,10,11,35,088,35,41,28,201,16,34,27,063,46,37,24,288,38,1*73
$GBGSV,3,3,10,28,12,178,,20,10,318,,1*79
$GBGSV,2,1,07,23,59,348,44,43,41,120,27,32,39,267,26,25,36,063,42,5*7D
$GBGSV,2,2,07,41,28,201,20,34,27,063,39,37,24,288,34,5*41
$GNGLL,3010.4640723,N,09630.6257738,W,195949.000,A,D*5D
$GNRMC,195949.000,A,3010.4640723,N,09630.6257738,W,000.1,000.0,301223,,,F,V*12
$GNVTG,000.0,T,,M,000.1,N,000.2,K,D*15
$GNZDA,195949.000,30,12,2023,00,00*42
$PSTI,030,195949.000,A,3010.4640723,N,09630.6257738,W,111.700,0.01,-0.05,0.01,301223,F,1.000,1.000*23
$PSTI,032,195949.000,301223,A,F,-1.857,2.858,9.642,10.227,326.99,5.28,,,,*04
$PSTI,033,195949.000,301223,2,R,0,G,0,,0,,C,0,,0,,E,0,,0,,R,,,,,I,0,,,*2E
$PSTI,033,195949.000,301223,2,B,0,G,0,,0,,C,0,,0,,E,0,,0,,R,,,,,I,0,,,*3E
$GPGGA,195950.000,3010.4640572,N,09630.6258046,W,5,15,0.7,111.573,M,-24.900,M,1.000,0000*46
$GNGSA,A,3,04,07,08,09,14,30,,,,,,,1.6,0.7,1.4,1*30
$GNGSA,A,3,27,,,,,,,,,,,,1.6,0.7,1.4,3*33
$GNGSA,A,3,11,23,25,32,34,37,41,43,,,,,1.6,0.7,1.4,4*37
$GNGSA,A,3,,,,,,,,,,,,,1.6,0.7,1.4,6*33
$GNGLL,3010.4640572,N,09630.6258046,W,195950.000,A,D*52
$GNRMC,195950.000,A,3010.4640572,N,09630.6258046,W,000.1,000.0,301223,,,F,V*1D
$GNVTG,000.0,T,,M,000.1,N,000.2,K,D*15
$GNZDA,195950.000,30,12,2023,00,00*4A
$PSTI,030,195950.000,A,3010.4640572,N,09630.6258046,W,111.573,0.01,-0.06,0.01,301223,F,1.000,1.000*29
$PSTI,032,195950.000,301223,A,F,-1.906,2.830,9.515,10.108,326.04,4.74,,,,*04
$PSTI,033,195950.000,301223,2,R,0,G,0,,0,,C,0,,0,,E,0,,0,,R,,,,,I,0,,,*26
$PSTI,033,195950.000,301223,2,B,0,G,0,,0,,C,0,,0,,E,0,,0,,R,,,,,I,0,,,*36
$GPGGA,195951.000,3010.4640341,N,09630.6258361,W,5,15,0.7,111.467,M,-24.900,M,1.000,0000*43
$GNGSA,A,3,04,07,08,09,14,30,,,,,,,1.6,0.7,1.4,1*30
$GNGSA,A,3,27,,,,,,,,,,,,1.6,0.7,1.4,3*33
$GNGSA,A,3,11,23,25,32,34,37,41,43,,,,,1.6,0.7,1.4,4*37
$GNGSA,A,3,,,,,,,,,,,,,1.6,0.7,1.4,6*33
$GNGLL,3010.4640341,N,09630.6258361,W,195951.000,A,D*53
$GNRMC,195951.000,A,3010.4640341,N,09630.6258361,W,000.1,000.0,301223,,,F,V*1C
$GNVTG,000.0,T,,M,000.1,N,000.2,K,D*15
$GNZDA,195951.000,30,12,2023,00,00*4B
$PSTI,030,195951.000,A,3010.4640341,N,09630.6258361,W,111.467,0.01,-0.05,0.01,301223,F,1.000,1.000*2F
$PSTI,032,195951.000,301223,A,F,-1.957,2.787,9.409,10.007,324.93,4.70,,,,*08
$PSTI,033,195951.000,301223,2,R,0,G,0,,0,,C,0,,0,,E,0,,0,,R,,,,,I,0,,,*27
$PSTI,033,195951.000,301223,2,B,0,G,0,,0,,C,0,,0,,E,0,,0,,R,,,,,I,0,,,*37
$GPGGA,195952.000,3010.4639947,N,09630.6258796,W,5,15,0.7,111.346,M,-24.900,M,1.000,0000*4A
$GNGSA,A,3,04,07,08,09,14,30,,,,,,,1.6,0.7,1.4,1*30
$GNGSA,A,3,27,,,,,,,,,,,,1.6,0.7,1.4,3*33
$GNGSA,A,3,11,23,25,32,34,37,41,43,,,,,1.6,0.7,1.4,4*37
$GNGSA,A,3,,,,,,,,,,,,,1.6,0.7,1.4,6*33
$GPGSV,3,1,10,09,70,224,48,08,65,098,47,07,49,328,46,04,42,164,28,1*62
$GPGSV,3,2,10,27,34,050,,30,22,306,39,14,20,252,38,21,11,132,,1*65
$GPGSV,3,3,10,16,10,051,,02,09,142,,1*6B
$GPGSV,2,1,05,09,70,224,42,08,65,098,39,04,42,164,14,30,22,306,37,8*61
$GPGSV,2,2,05,14,20,252,24,8*5C
$GAGSV,3,1,09,27,60,014,48,21,47,269,,19,36,313,,07,35,162,,7*77
$GAGSV,3,2,09,30,15,052,,15,10,102,,13,04,150,,34,03,055,,7*7B
$GAGSV,3,3,09,20,00,000,42,7*4E
$GAGSV,1,1,02,27,60,014,41,20,00,000,08,1*7E
$GBGSV,3,1,10,23,59,348,53,43,41,120,32,32,39,267,40,25,36,063,49,1*77
$GBGSV,3,2,10,11,35,088,35,41,28,201,17,34,27,063,45,37,24,288,39,1*70
$GBGSV,3,3,10,28,12,178,,20,10,318,,1*79
$GBGSV,2,1,07,23,59,348,44,43,41,120,26,32,39,267,25,25,36,063,42,5*7F
$GBGSV,2,2,07,41,28,201,20,34,27,063,39,37,24,288,34,5*41
$GNGLL,3010.4639947,N,09630.6258796,W,195952.000,A,D*5E
$GNRMC,195952.000,A,3010.4639947,N,09630.6258796,W,000.1,000.0,301223,,,F,V*11
$GNVTG,000.0,T,,M,000.1,N,000.2,K,D*15
$GNZDA,195952.000,30,12,2023,00,00*48
$PSTI,030,195952.000,A,3010.4639947,N,09630.6258796,W,111.346,0.01,-0.05,0.01,301223,F,1.000,1.000*26
$PSTI,032,195952.000,301223,A,F,-2.027,2.715,9.288,9.887,323.25,5.41,,,,*33
$PSTI,033,195952.000,301223,2,R,0,G,0,,0,,C,0,,0,,E,0,,0,,R,,,,,I,0,,,*24
$PSTI,033,195952.000,301223,2,B,0,G,0,,0,,C,0,,0,,E,0,,0,,R,,,,,I,0,,,*34
$GPGGA,195953.000,3010.4640105,N,09630.6259252,W,5,15,0.7,111.203,M,-24.900,M,1.000,0000*47
$GNGSA,A,3,04,07,08,09,14,30,,,,,,,1.6,0.7,1.4,1*30
$GNGSA,A,3,27,,,,,,,,,,,,1.6,0.7,1.4,3*33
$GNGSA,A,3,11,23,25,32,34,37,41,43,,,,,1.6,0.7,1.4,4*37
$GNGSA,A,3,,,,,,,,,,,,,1.6,0.7,1.4,6*33
$GNGLL,3010.4640105,N,09630.6259252,W,195953.000,A,D*53
$GNRMC,195953.000,A,3010.4640105,N,09630.6259252,W,000.1,000.0,301223,,,F,V*1C
$GNVTG,000.0,T,,M,000.1,N,000.2,K,D*15
$GNZDA,195953.000,30,12,2023,00,00*49
$PSTI,030,195953.000,A,3010.4640105,N,09630.6259252,W,111.203,0.01,-0.06,0.01,301223,F,1.000,1.000*28
$PSTI,032,195953.000,301223,A,F,-2.100,2.744,9.145,9.776,322.57,4.85,,,,*3C
$PSTI,033,195953.000,301223,2,R,0,G,0,,0,,C,0,,0,,E,0,,0,,R,,,,,I,0,,,*25
$PSTI,033,195953.000,301223,2,B,0,G,0,,0,,C,0,,0,,E,0,,0,,R,,,,,I,0,,,*35
$GPGGA,195954.000,3010.4640016,N,09630.6259604,W,5,15,0.7,111.110,M,-24.900,M,1.000,0000*45
$GNGSA,A,3,04,07,08,09,14,30,,,,,,,1.6,0.7,1.4,1*30
$GNGSA,A,3,27,,,,,,,,,,,,1.6,0.7,1.4,3*33
$GNGSA,A,3,11,23,25,32,34,37,41,43,,,,,1.6,0.7,1.4,4*37
$GNGSA,A,3,,,,,,,,,,,,,1.6,0.7,1.4,6*33
$GNGLL,3010.4640016,N,09630.6259604,W,195954.000,A,D*50
$GNRMC,195954.000,A,3010.4640016,N,09630.6259604,W,000.1,000.0,301223,,,F,V*1F
$GNVTG,000.0,T,,M,000.1,N,000.2,K,D*15
$GNZDA,195954.000,30,12,2023,00,00*4E
$PSTI,030,195954.000,A,3010.4640016,N,09630.6259604,W,111.110,0.01,-0.06,0.01,301223,F,1.000,1.000*2A
$PSTI,032,195954.000,301223,A,F,-2.156,2.727,9.052,9.697,321.67,4.80,,,,*31
$PSTI,033,195954.000,301223,2,R,0,G,0,,0,,C,0,,0,,E,0,,0,,R,,,,,I,0,,,*22
$PSTI,033,195954.000,301223,2,B,0,G,0,,0,,C,0,,0,,E,0,,0,,R,,,,,I,0,,,*32
$GPGGA,195955.000,3010.4639721,N,09630.6260168,W,5,15,0.7,110.935,M,-24.900,M,1.000,0000*40
$GNGSA,A,3,04,07,08,09,14,30,,,,,,,1.6,0.7,1.4,1*30
$GNGSA,A,3,27,,,,,,,,,,,,1.6,0.7,1.4,3*33
$GNGSA,A,3,11,23,25,32,34,37,41,43,,,,,1.6,0.7,1.4,4*37
$GNGSA,A,3,,,,,,,,,,,,,1.6,0.7,1.4,6*33
$GPGSV,3,1,10,09,69,222,47,08,65,098,47,07,49,328,46,04,42,164,30,1*6A
$GPGSV,3,2,10,27,34,050,,30,22,306,39,14,20,252,38,21,11,132,,1*65
$GPGSV,3,3,10,16,10,051,,02,09,142,,1*6B
$GPGSV,2,1,05,09,69,222,42,08,65,098,39,04,42,164,11,30,22,306,37,8*6A
$GPGSV,2,2,05,14,20,252,23,8*5B
$GAGSV,3,1,09,27,60,014,48,21,47,269,,19,36,313,,07,35,162,,7*77
$GAGSV,3,2,09,30,15,052,,15,10,102,,13,04,150,,34,03,055,,7*7B
$GAGSV,3,3,09,20,00,000,42,7*4E
$GAGSV,1,1,02,27,60,014,41,20,00,000,12,1*75
$GBGSV,3,1,10,23,59,348,53,43,41,120,32,32,39,267,40,25,36,063,49,1*77
$GBGSV,3,2,10,11,35,088,34,41,28,201,17,34,27,063,45,37,24,288,39,1*71
$GBGSV,3,3,10,28,12,178,,20,10,318,,1*79
$GBGSV,2,1,07,23,59,348,44,43,41,120,27,32,39,267,26,25,36,063,42,5*7D
$GBGSV,2,2,07,41,28,201,20,34,27,063,39,37,24,288,34,5*41
$GNGLL,3010.4639721,N,09630.6260168,W,195955.000,A,D*5B
$GNRMC,195955.000,A,3010.4639721,N,09630.6260168,W,000.1,000.0,301223,,,F,V*14
$GNVTG,000.0,T,,M,000.1,N,000.2,K,D*15
$GNZDA,195955.000,30,12,2023,00,00*4F
$PSTI,030,195955.000,A,3010.4639721,N,09630.6260168,W,110.935,0.01,-0.05,0.01,301223,F,1.000,1.000*2C
$PSTI,032,195955.000,301223,A,F,-2.247,2.673,8.877,9.539,319.95,5.57,,,,*37
$PSTI,033,195955.000,301223,2,R,0,G,0,,0,,C,0,,0,,E,0,,0,,R,,,,,I,0,,,*23
$PSTI,033,195955.000,301223,2,B,0,G,0,,0,,C,0,,0,,E,0,,0,,R,,,,,I,0,,,*33
$GPGGA,195956.000,3010.4639585,N,09630.6260596,W,5,15,0.7,110.751,M,-24.900,M,1.000,0000*46
$GNGSA,A,3,04,07,08,09,14,30,,,,,,,1.6,0.7,1.4,1*30
$GNGSA,A,3,27,,,,,,,,,,,,1.6,0.7,1.4,3*33
$GNGSA,A,3,11,23,25,32,34,37,41,43,,,,,1.6,0.7,1.4,4*37
$GNGSA,A,3,,,,,,,,,,,,,1.6,0.7,1.4,6*33
$GNGLL,3010.4639585,N,09630.6260596,W,195956.000,A,D*51
$GNRMC,195956.000,A,3010.4639585,N,09630.6260596,W,000.1,000.0,301223,,,F,V*1E
$GNVTG,000.0,T,,M,000.1,N,000.2,K,D*15
$GNZDA,195956.000,30,12,2023,00,00*4C
$PSTI,030,195956.000,A,3010.4639585,N,09630.6260596,W,110.751,0.01,-0.05,0.01,301223,F,1.000,1.000*2A
$PSTI,032,195956.000,301223,A,F,-2.316,2.648,8.693,9.378,318.83,5.01,,,,*3B
$PSTI,033,195956.000,301223,2,R,0,G,0,,0,,C,0,,0,,E,0,,0,,R,,,,,I,0,,,*20
$PSTI,033,195956.000,301223,2,B,0,G,0,,0,,C,0,,0,,E,0,,0,,R,,,,,I,0,,,*30
$GPGGA,195957.000,3010.4639356,N,09630.6260949,W,5,15,0.7,110.597,M,-24.900,M,1.000,0000*49
$GNGSA,A,3,04,07,08,09,14,30,,,,,,,1.6,0.7,1.4,1*30
$GNGSA,A,3,27,,,,,,,,,,,,1.6,0.7,1.4,3*33
$GNGSA,A,3,11,23,25,32,34,37,41,43,,,,,1.6,0.7,1.4,4*37
$GNGSA,A,3,,,,,,,,,,,,,1.6,0.7,1.4,6*33
$GNGLL,3010.4639356,N,09630.6260949,W,195957.000,A,D*56
$GNRMC,195957.000,A,3010.4639356,N,09630.6260949,W,000.1,000.0,301223,,,F,V*19
$GNVTG,000.0,T,,M,000.1,N,000.2,K,D*15
$GNZDA,195957.000,30,12,2023,00,00*4D
$PSTI,030,195957.000,A,3010.4639356,N,09630.6260949,W,110.597,0.01,-0.07,0.00,301223,F,1.000,1.000*26
$PSTI,032,195957.000,301223,A,F,-2.372,2.605,8.539,9.238,317.68,4.99,,,,*3D
$PSTI,033,195957.000,301223,2,R,0,G,0,,0,,C,0,,0,,E,0,,0,,R,,,,,I,0,,,*21
$PSTI,033,195957.000,301223,2,B,0,G,0,,0,,C,0,,0,,E,0,,0,,R,,,,,I,0,,,*31
$GPGGA,195958.000,3010.4639110,N,09630.6261398,W,5,15,0.7,110.433,M,-24.900,M,1.000,0000*4E
$GNGSA,A,3,04,07,08,09,14,30,,,,,,,1.6,0.7,1.4,1*30
$GNGSA,A,3,27,,,,,,,,,,,,1.6,0.7,1.4,3*33
$GNGSA,A,3,11,23,25,32,34,37,41,43,,,,,1.6,0.7,1.4,4*37
$GNGSA,A,3,,,,,,,,,,,,,1.6,0.7,1.4,6*33
$GPGSV,3,1,10,09,69,222,47,08,65,098,47,07,49,328,46,04,42,164,30,1*6A
$GPGSV,3,2,10,27,34,050,,30,22,306,38,14,20,252,38,21,11,132,,1*64
$GPGSV,3,3,10,16,10,051,,02,09,142,,1*6B
$GPGSV,2,1,05,09,69,222,42,08,65,098,39,04,42,164,07,30,22,306,37,8*6D
$GPGSV,2,2,05,14,20,252,23,8*5B
$GAGSV,3,1,09,27,60,014,48,21,47,269,,19,36,313,,07,35,162,,7*77
$GAGSV,3,2,09,30,15,052,,15,10,102,,13,04,150,,34,03,055,,7*7B
$GAGSV,3,3,09,20,00,000,42,7*4E
$GAGSV,1,1,02,27,60,014,41,20,00,000,09,1*7F
$GBGSV,3,1,10,23,59,348,53,43,41,120,32,32,39,267,40,25,36,063,49,1*77
$GBGSV,3,2,10,11,35,088,34,41,28,201,19,34,27,063,45,37,24,288,39,1*7F
$GBGSV,3,3,10,28,12,178,,20,10,318,,1*79
$GBGSV,2,1,07,23,59,348,44,43,41,120,26,32,39,267,25,25,36,063,42,5*7F
$GBGSV,2,2,07,41,28,201,20,34,27,063,39,37,24,288,34,5*41
$GNGLL,3010.4639110,N,09630.6261398,W,195958.000,A,D*5E
$GNRMC,195958.000,A,3010.4639110,N,09630.6261398,W,000.1,000.0,301223,,,F,V*11
$GNVTG,000.0,T,,M,000.1,N,000.2,K,D*15
$GNZDA,195958.000,30,12,2023,00,00*42
$PSTI,030,195958.000,A,3010.4639110,N,09630.6261398,W,110.433,0.00,-0.05,0.01,301223,F,1.000,1.000*23
$PSTI,032,195958.000,301223,A,F,-2.444,2.560,8.375,9.092,316.32,5.81,,,,*3A
$PSTI,033,195958.000,301223,2,R,0,G,0,,0,,C,0,,0,,E,0,,0,,R,,,,,I,0,,,*2E
$PSTI,033,195958.000,301223,2,B,0,G,0,,0,,C,0,,0,,E,0,,0,,R,,,,,I,0,,,*3E
$GPGGA,195959.000,3010.4639073,N,09630.6261727,W,5,15,0.7,110.258,M,-24.900,M,1.000,0000*40
$GNGSA,A,3,04,07,08,09,14,30,,,,,,,1.6,0.7,1.4,1*30
$GNGSA,A,3,27,,,,,,,,,,,,1.6,0.7,1.4,3*33
$GNGSA,A,3,11,23,25,32,34,37,41,43,,,,,1.6,0.7,1.4,4*37
$GNGSA,A,3,,,,,,,,,,,,,1.6,0.7,1.4,6*33
$GNGLL,3010.4639073,N,09630.6261727,W,195959.000,A,D*5B
$GNRMC,195959.000,A,3010.4639073,N,09630.6261727,W,000.1,000.0,301223,,,F,V*14
$GNVTG,000.0,T,,M,000.1,N,000.2,K,D*15
$GNZDA,195959.000,30,12,2023,00,00*43
$PSTI,030,195959.000,A,3010.4639073,N,09630.6261727,W,110.258,0.01,-0.06,0.01,301223,F,1.000,1.000*2F
$PSTI,032,195959.000,301223,A,F,-2.497,2.553,8.200,8.944,315.63,5.22,,,,*3B
$PSTI,033,195959.000,301223,2,R,0,G,0,,0,,C,0,,0,,E,0,,0,,R,,,,,I,0,,,*2F
$PSTI,033,195959.000,301223,2,B,0,G,0,,0,,C,0,,0,,E,0,,0,,R,,,,,I,0,,,*3F
$GPGGA,200000.000,3010.4638936,N,09630.6261991,W,5,15,0.7,110.141,M,-24.900,M,1.000,0000*4B
$GNGSA,A,3,04,07,08,09,14,30,,,,,,,1.6,0.7,1.4,1*30
$GNGSA,A,3,27,,,,,,,,,,,,1.6,0.7,1.4,3*33
$GNGSA,A,3,11,23,25,32,34,37,41,43,,,,,1.6,0.7,1.4,4*37
$GNGSA,A,3,,,,,,,,,,,,,1.6,0.7,1.4,6*33
$GNGLL,3010.4638936,N,09630.6261991,W,200000.000,A,D*5B
$GNRMC,200000.000,A,3010.4638936,N,09630.6261991,W,000.1,000.0,301223,,,F,V*14
$GNVTG,000.0,T,,M,000.1,N,000.2,K,D*15
$GNZDA,200000.000,30,12,2023,00,00*49
$PSTI,030,200000.000,A,3010.4638936,N,09630.6261991,W,110.141,0.01,-0.05,0.01,301223,F,1.000,1.000*27
$PSTI,032,200000.000,301223,A,F,-2.540,2.528,8.083,8.842,314.87,5.18,,,,*3A
$PSTI,033,200000.000,301223,2,R,0,G,0,,0,,C,0,,0,,E,0,,0,,R,,,,,I,0,,,*25
$PSTI,033,200000.000,301223,2,B,0,G,0,,0,,C,0,,0,,E,0,,0,,R,,,,,I,0,,,*35
$GPGGA,200001.000,3010.4638697,N,09630.6262351,W,5,15,0.7,110.026,M,-24.900,M,1.000,0000*4B
$GNGSA,A,3,04,07,08,09,14,30,,,,,,,1.6,0.7,1.4,1*30
$GNGSA,A,3,27,,,,,,,,,,,,1.6,0.7,1.4,3*33
$GNGSA,A,3,11,23,25,32,34,37,41,43,,,,,1.6,0.7,1.4,4*37
$GNGSA,A,3,,,,,,,,,,,,,1.6,0.7,1.4,6*33
$GPGSV,3,1,10,09,69,222,47,08,65,098,47,07,49,328,46,04,42,164,31,1*6B
$GPGSV,3,2,10,27,34,050,,30,22,306,38,14,20,252,38,21,11,132,,1*64
$GPGSV,3,3,10,16,10,051,,02,09,142,,1*6B
$GPGSV,2,1,05,09,69,222,42,08,65,098,39,04,42,164,05,30,22,306,37,8*6F
$GPGSV,2,2,05,14,20,252,23,8*5B
$GAGSV,3,1,09,27,60,014,48,21,47,269,,19,36,313,,07,35,162,,7*77
$GAGSV,3,2,09,30,15,052,,15,10,102,,13,04,150,,34,03,055,,7*7B
$GAGSV,3,3,09,20,00,000,42,7*4E
$GAGSV,1,1,02,27,60,014,41,20,00,000,07,1*71
$GBGSV,3,1,10,23,59,348,53,43,41,120,33,32,39,267,41,25,36,063,49,1*77
$GBGSV,3,2,10,11,35,088,34,41,28,201,20,34,27,063,45,37,24,288,39,1*75
$GBGSV,3,3,10,28,12,178,,20,10,318,,1*79
$GBGSV,2,1,07,23,59,348,44,43,41,120,27,32,39,267,25,25,36,063,42,5*7E
$GBGSV,2,2,07,41,28,201,21,34,27,063,39,37,24,288,34,5*40
$GNGLL,3010.4638697,N,09630.6262351,W,200001.000,A,D*5B
$GNRMC,200001.000,A,3010.4638697,N,09630.6262351,W,000.1,000.0,301223,,,F,V*14
$GNVTG,000.0,T,,M,000.1,N,000.2,K,D*15
$GNZDA,200001.000,30,12,2023,00,00*48
$PSTI,030,200001.000,A,3010.4638697,N,09630.6262351,W,110.026,0.01,-0.06,0.01,301223,F,1.000,1.000*24
$PSTI,032,200001.000,301223,A,F,-2.597,2.484,7.968,8.741,313.72,6.01,,,,*3F
$PSTI,033,200001.000,301223,2,R,0,G,0,,0,,C,0,,0,,E,0,,0,,R,,,,,I,0,,,*24
$PSTI,033,200001.000,301223,2,B,0,G,0,,0,,C,0,,0,,E,0,,0,,R,,,,,I,0,,,*34
$GPGGA,200002.000,3010.4638638,N,09630.6262724,W,5,15,0.7,109.889,M,-24.900,M,1.000,0000*4E
$GNGSA,A,3,04,07,08,09,14,30,,,,,,,1.6,0.7,1.4,1*30
$GNGSA,A,3,27,,,,,,,,,,,,1.6,0.7,1.4,3*33
$GNGSA,A,3,11,23,25,32,34,37,41,43,,,,,1.6,0.7,1.4,4*37
$GNGSA,A,3,,,,,,,,,,,,,1.6,0.7,1.4,6*33
$GNGLL,3010.4638638,N,09630.6262724,W,200002.000,A,D*5B
$GNRMC,200002.000,A,3010.4638638,N,09630.6262724,W,000.1,000.0,301223,,,F,V*14
$GNVTG,000.0,T,,M,000.1,N,000.2,K,D*15
$GNZDA,200002.000,30,12,2023,00,00*4B
$PSTI,030,200002.000,A,3010.4638638,N,09630.6262724,W,109.889,0.01,-0.05,0.01,301223,F,1.000,1.000*22
$PSTI,032,200002.000,301223,A,F,-2.657,2.473,7.831,8.631,312.94,5.38,,,,*30
$PSTI,033,200002.000,301223,2,R,0,G,0,,0,,C,0,,0,,E,0,,0,,R,,,,,I,0,,,*27
$PSTI,033,200002.000,301223,2,B,0,G,0,,0,,C,0,,0,,E,0,,0,,R,,,,,I,0,,,*37
$GPGGA,200003.000,3010.4638410,N,09630.6263034,W,5,15,0.7,109.810,M,-24.900,M,1.000,0000*40
$GNGSA,A,3,04,07,08,09,14,30,,,,,,,1.6,0.7,1.4,1*30
$GNGSA,A,3,27,,,,,,,,,,,,1.6,0.7,1.4,3*33
$GNGSA,A,3,11,23,25,32,34,37,41,43,,,,,1.6,0.7,1.4,4*37
$GNGSA,A,3,,,,,,,,,,,,,1.6,0.7,1.4,6*33
$GNGLL,3010.4638410,N,09630.6263034,W,200003.000,A,D*55
$GNRMC,200003.000,A,3010.4638410,N,09630.6263034,W,000.1,000.0,301223,,,F,V*1A
$GNVTG,000.0,T,,M,000.1,N,000.2,K,D*15
$GNZDA,200003.000,30,12,2023,00,00*4A
$PSTI,030,200003.000,A,3010.4638410,N,09630.6263034,W,109.810,0.01,-0.06,0.01,301223,F,1.000,1.000*2F
$PSTI,032,200003.000,301223,A,F,-2.707,2.431,7.752,8.563,311.92,5.32,,,,*32
$PSTI,033,200003.000,301223,2,R,0,G,0,,0,,C,0,,0,,E,0,,0,,R,,,,,I,0,,,*26
$PSTI,033,200003.000,301223,2,B,0,G,0,,0,,C,0,,0,,E,0,,0,,R,,,,,I,0,,,*36
$GPGGA,200004.000,3010.4638090,N,09630.6263418,W,5,15,0.7,109.723,M,-24.900,M,1.000,0000*4E
$GNGSA,A,3,04,07,08,09,14,30,,,,,,,1.6,0.7,1.4,1*30
$GNGSA,A,3,27,,,,,,,,,,,,1.6,0.7,1.4,3*33
$GNGSA,A,3,11,23,25,32,34,37,41,43,,,,,1.6,0.7,1.4,4*37
$GNGSA,A,3,,,,,,,,,,,,,1.6,0.7,1.4,6*33
$GPGSV,3,1,10,09,69,222,47,08,65,098,47,07,49,328,46,04,42,164,31,1*6B
$GPGSV,3,2,10,27,34,050,,30,22,306,38,14,20,252,38,21,11,132,,1*64
$GPGSV,3,3,10,16,10,051,,02,09,142,,1*6B
$GPGSV,1,1,04,09,69,222,42,08,65,098,39,30,22,306,37,14,20,252,23,8*6A
$GAGSV,3,1,09,27,60,014,49,21,47,269,,19,36,313,,07,35,162,,7*76
$GAGSV,3,2,09,30,15,052,,15,10,102,,13,04,150,,34,03,055,,7*7B
$GAGSV,3,3,09,20,00,000,42,7*4E
$GAGSV,1,1,02,27,60,014,41,20,00,000,10,1*77
$GBGSV,3,1,10,23,59,348,53,43,41,120,33,32,39,267,41,25,36,063,49,1*77
$GBGSV,3,2,10,11,35,088,33,41,28,201,23,34,27,063,45,37,24,288,39,1*71
$GBGSV,3,3,10,28,12,178,,20,10,318,,1*79
$GBGSV,2,1,07,23,59,348,44,43,41,120,27,32,39,267,24,25,36,063,42,5*7F
$GBGSV,2,2,07,41,28,201,21,34,27,063,39,37,24,288,34,5*40
$GNGLL,3010.4638090,N,09630.6263418,W,200004.000,A,D*54
$GNRMC,200004.000,A,3010.4638090,N,09630.6263418,W,000.1,000.0,301223,,,F,V*1B
$GNVTG,000.0,T,,M,000.1,N,000.2,K,D*15
$GNZDA,200004.000,30,12,2023,00,00*4D
$PSTI,030,200004.000,A,3010.4638090,N,09630.6263418,W,109.723,0.01,-0.05,0.01,301223,F,1.000,1.000*22
$PSTI,032,200004.000,301223,A,F,-2.769,2.371,7.665,8.488,310.58,6.17,,,,*3C
$PSTI,033,200004.000,301223,2,R,0,G,0,,0,,C,0,,0,,E,0,,0,,R,,,,,I,0,,,*21
$PSTI,033,200004.000,301223,2,B,0,G,0,,0,,C,0,,0,,E,0,,0,,R,,,,,I,0,,,*31
$GPGGA,200005.000,3010.4638070,N,09630.6263779,W,5,15,0.7,109.660,M,-24.900,M,1.000,0000*43
$GNGSA,A,3,04,07,08,09,14,30,,,,,,,1.6,0.7,1.4,1*30
$GNGSA,A,3,27,,,,,,,,,,,,1.6,0.7,1.4,3*33
$GNGSA,A,3,11,23,25,32,34,37,41,43,,,,,1.6,0.7,1.4,4*37
$GNGSA,A,3,,,,,,,,,,,,,1.6,0.7,1.4,6*33
$GNGLL,3010.4638070,N,09630.6263779,W,200005.000,A,D*5F
$GNRMC,200005.000,A,3010.4638070,N,09630.6263779,W,000.1,000.0,301223,,,F,V*10
$GNVTG,000.0,T,,M,000.1,N,000.2,K,D*15
$GNZDA,200005.000,30,12,2023,00,00*4C
$PSTI,030,200005.000,A,3010.4638070,N,09630.6263779,W,109.660,0.01,-0.05,0.01,301223,F,1.000,1.000*2F
$PSTI,032,200005.000,301223,A,F,-2.827,2.368,7.602,8.449,309.95,5.47,,,,*33
$PSTI,033,200005.000,301223,2,R,0,G,0,,0,,C,0,,0,,E,0,,0,,R,,,,,I,0,,,*20
$PSTI,033,200005.000,301223,2,B,0,G,0,,0,,C,0,,0,,E,0,,0,,R,,,,,I,0,,,*30
$GPGGA,200006.000,3010.4637906,N,09630.6263929,W,5,15,0.7,109.657,M,-24.900,M,1.000,0000*48
$GNGSA,A,3,04,07,08,09,14,30,,,,,,,1.6,0.7,1.4,1*30
$GNGSA,A,3,27,,,,,,,,,,,,1.6,0.7,1.4,3*33
$GNGSA,A,3,11,23,25,32,34,37,41,43,,,,,1.6,0.7,1.4,4*37
$GNGSA,A,3,,,,,,,,,,,,,1.6,0.7,1.4,6*33
$GNGLL,3010.4637906,N,09630.6263929,W,200006.000,A,D*50
$GNRMC,200006.000,A,3010.4637906,N,09630.6263929,W,000.1,000.0,301223,,,F,V*1F
$GNVTG,000.0,T,,M,000.1,N,000.2,K,D*15
$GNZDA,200006.000,30,12,2023,00,00*4F
$PSTI,030,200006.000,A,3010.4637906,N,09630.6263929,W,109.657,0.01,-0.06,0.01,301223,F,1.000,1.000*27
$PSTI,032,200006.000,301223,A,F,-2.851,2.337,7.599,8.446,309.35,5.37,,,,*38
$PSTI,033,200006.000,301223,2,R,0,G,0,,0,,C,0,,0,,E,0,,0,,R,,,,,I,0,,,*23
$PSTI,033,200006.000,301223,2,B,0,G,0,,0,,C,0,,0,,E,0,,0,,R,,,,,I,0,,,*33
$GPGGA,200007.000,3010.4637571,N,09630.6264233,W,5,15,0.7,109.640,M,-24.900,M,1.000,0000*44
$GNGSA,A,3,04,07,08,09,14,30,,,,,,,1.6,0.7,1.4,1*30
$GNGSA,A,3,27,,,,,,,,,,,,1.6,0.7,1.4,3*33
$GNGSA,A,3,11,23,25,32,34,37,41,43,,,,,1.6,0.7,1.4,4*37
$GNGSA,A,3,,,,,,,,,,,,,1.6,0.7,1.4,6*33
$GPGSV,3,1,10,09,69,222,47,08,65,098,47,07,49,328,46,04,42,164,32,1*68
$GPGSV,3,2,10,27,34,050,,30,22,306,38,14,20,252,39,21,11,131,,1*66
$GPGSV,3,3,10,16,10,051,,02,09,142,,1*6B
$GPGSV,2,1,05,09,69,222,42,08,65,098,39,04,42,164,21,30,22,306,37,8*69
$GPGSV,2,2,05,14,20,252,23,8*5B
$GAGSV,3,1,09,27,60,014,49,21,47,269,,19,36,313,,07,35,162,,7*76
$GAGSV,3,2,09,30,15,052,,15,10,102,,13,04,150,,34,03,055,,7*7B
$GAGSV,3,3,09,20,00,000,42,7*4E
$GAGSV,1,1,02,27,60,014,41,20,00,000,07,1*71
$GBGSV,3,1,10,23,59,348,53,43,41,120,33,32,39,267,41,25,36,063,49,1*77
$GBGSV,3,2,10,11,35,088,33,41,28,201,24,34,27,063,45,37,24,288,39,1*76
$GBGSV,3,3,10,28,12,178,,20,10,318,,1*79
$GBGSV,2,1,07,23,59,348,44,43,41,120,26,32,39,267,24,25,36,063,42,5*7E
$GBGSV,2,2,07,41,28,201,21,34,27,063,39,37,24,288,35,5*41
$GNGLL,3010.4637571,N,09630.6264233,W,200007.000,A,D*5A
$GNRMC,200007.000,A,3010.4637571,N,09630.6264233,W,000.1,000.0,301223,,,F,V*15
$GNVTG,000.0,T,,M,000.1,N,000.2,K,D*15
$GNZDA,200007.000,30,12,2023,00,00*4E
$PSTI,030,200007.000,A,3010.4637571,N,09630.6264233,W,109.640,0.01,-0.05,0.01,301223,F,1.000,1.000*28
$PSTI,032,200007.000,301223,A,F,-2.900,2.275,7.582,8.430,308.12,6.19,,,,*3B
$PSTI,033,200007.000,301223,2,R,0,G,0,,0,,C,0,,0,,E,0,,0,,R,,,,,I,0,,,*22
$PSTI,033,200007.000,301223,2,B,0,G,0,,0,,C,0,,0,,E,0,,0,,R,,,,,I,0,,,*32
$GPGGA,200008.000,3010.4637744,N,09630.6264468,W,5,15,0.7,109.701,M,-24.900,M,1.000,0000*43
$GNGSA,A,3,04,07,08,09,14,30,,,,,,,1.6,0.7,1.4,1*30
$GNGSA,A,3,27,,,,,,,,,,,,1.6,0.7,1.4,3*33
$GNGSA,A,3,11,23,25,32,34,37,41,43,,,,,1.6,0.7,1.4,4*37
$GNGSA,A,3,,,,,,,,,,,,,1.6,0.7,1.4,6*33
$GNGLL,3010.4637744,N,09630.6264468,W,200008.000,A,D*59
$GNRMC,200008.000,A,3010.4637744,N,09630.6264468,W,000.1,000.0,301223,,,F,V*16
$GNVTG,000.0,T,,M,000.1,N,000.2,K,D*15
$GNZDA,200008.000,30,12,2023,00,00*41
$PSTI,030,200008.000,A,3010.4637744,N,09630.6264468,W,109.701,0.01,-0.05,0.01,301223,F,1.000,1.000*2F
$PSTI,032,200008.000,301223,A,F,-2.937,2.307,7.643,8.507,308.15,5.41,,,,*36
$PSTI,033,200008.000,301223,2,R,0,G,0,,0,,C,0,,0,,E,0,,0,,R,,,,,I,0,,,*2D
$PSTI,033,200008.000,301223,2,B,0,G,0,,0,,C,0,,0,,E,0,,0,,R,,,,,I,0,,,*3D
$GPGGA,200009.000,3010.4637481,N,09630.6264603,W,5,15,0.7,109.678,M,-24.900,M,1.000,0000*48
$GNGSA,A,3,04,07,08,09,14,30,,,,,,,1.6,0.7,1.4,1*30
$GNGSA,A,3,27,,,,,,,,,,,,1.6,0.7,1.4,3*33
$GNGSA,A,3,11,23,25,32,34,37,41,43,,,,,1.6,0.7,1.4,4*37
$GNGSA,A,3,,,,,,,,,,,,,1.6,0.7,1.4,6*33
$GNGLL,3010.4637481,N,09630.6264603,W,200009.000,A,D*5D
$GNRMC,200009.000,A,3010.4637481,N,09630.6264603,W,000.1,000.0,301223,,,F,V*12
$GNVTG,000.0,T,,M,000.1,N,000.2,K,D*15
$GNZDA,200009.000,30,12,2023,00,00*40
$PSTI,030,200009.000,A,3010.4637481,N,09630.6264603,W,109.678,0.01,-0.06,0.01,301223,F,1.000,1.000*27
$PSTI,032,200009.000,301223,A,F,-2.959,2.259,7.620,8.480,307.36,5.33,,,,*35
$PSTI,033,200009.000,301223,2,R,0,G,0,,0,,C,0,,0,,E,0,,0,,R,,,,,I,0,,,*2C
$PSTI,033,200009.000,301223,2,B,0,G,0,,0,,C,0,,0,,E,0,,0,,R,,,,,I,0,,,*3C
$GPGGA,200010.000,3010.4636992,N,09630.6265005,W,5,15,0.8,109.621,M,-24.900,M,1.000,0000*4C
$GNGSA,A,3,04,07,08,09,14,30,,,,,,,1.7,0.8,1.4,1*3E
$GNGSA,A,3,27,,,,,,,,,,,,1.7,0.8,1.4,3*3D
$GNGSA,A,3,11,23,25,32,34,37,41,43,,,,,1.7,0.8,1.4,4*39
$GNGSA,A,3,,,,,,,,,,,,,1.7,0.8,1.4,6*3D
$GPGSV,3,1,10,09,69,222,47,08,65,098,47,07,49,328,46,04,42,164,33,1*69
$GPGSV,3,2,10,27,34,050,,30,22,306,39,14,20,252,39,21,11,131,,1*67
$GPGSV,3,3,10,16,10,051,,02,09,142,,1*6B
$GPGSV,2,1,05,09,69,222,42,08,65,098,39,04,42,164,21,30,22,306,37,8*69
$GPGSV,2,2,05,14,20,252,22,8*5A
$GAGSV,3,1,09,27,60,014,49,21,47,269,,19,36,313,,07,35,162,,7*76
$GAGSV,3,2,09,30,15,052,,15,10,102,,13,04,150,,34,03,055,,7*7B
$GAGSV,3,3,09,20,00,000,42,7*4E
$GAGSV,1,1,02,27,60,014,41,20,00,000,06,1*70
$GBGSV,3,1,10,23,59,348,53,43,41,120,33,32,39,267,41,25,36,063,48,1*76
$GBGSV,3,2,10,11,35,088,32,41,28,201,22,34,27,063,45,37,24,288,39,1*71
$GBGSV,3,3,10,28,12,178,,20,10,318,,1*79
$GBGSV,2,1,07,23,59,348,44,43,41,120,27,32,39,267,24,25,36,063,42,5*7F
$GBGSV,2,2,07,41,28,201,21,34,27,063,39,37,24,288,34,5*40
$GNGLL,3010.4636992,N,09630.6265005,W,200010.000,A,D*5A
$GNRMC,200010.000,A,3010.4636992,N,09630.6265005,W,000.1,000.0,301223,,,F,V*15
$GNVTG,000.0,T,,M,000.1,N,000.2,K,D*15
$GNZDA,200010.000,30,12,2023,00,00*48
$PSTI,030,200010.000,A,3010.4636992,N,09630.6265005,W,109.621,0.00,-0.05,0.01,301223,F,1.000,1.000*2E
$PSTI,032,200010.000,301223,A,F,-3.024,2.169,7.563,8.429,305.65,6.17,,,,*39
$PSTI,033,200010.000,301223,2,R,0,G,0,,0,,C,0,,0,,E,0,,0,,R,,,,,I,0,,,*24
$PSTI,033,200010.000,301223,2,B,0,G,0,,0,,C,0,,0,,E,0,,0,,R,,,,,I,0,,,*34
$GPGGA,200011.000,3010.4636913,N,09630.6265306,W,5,15,0.7,109.583,M,-24.900,M,1.000,0000*40
$GNGSA,A,3,04,07,08,09,14,30,,,,,,,1.6,0.7,1.4,1*30
$GNGSA,A,3,27,,,,,,,,,,,,1.6,0.7,1.4,3*33
$GNGSA,A,3,11,23,25,32,34,37,41,43,,,,,1.6,0.7,1.4,4*37
$GNGSA,A,3,,,,,,,,,,,,,1.6,0.7,1.4,6*33
$GNGLL,3010.4636913,N,09630.6265306,W,200011.000,A,D*52
$GNRMC,200011.000,A,3010.4636913,N,09630.6265306,W,000.1,000.0,301223,,,F,V*1D
$GNVTG,000.0,T,,M,000.1,N,000.2,K,D*15
$GNZDA,200011.000,30,12,2023,00,00*49
$PSTI,030,200011.000,A,3010.4636913,N,09630.6265306,W,109.583,0.01,-0.06,0.01,301223,F,1.000,1.000*2F
$PSTI,032,200011.000,301223,A,F,-3.072,2.154,7.525,8.408,305.04,5.45,,,,*37
$PSTI,033,200011.000,301223,2,R,0,G,0,,0,,C,0,,0,,E,0,,0,,R,,,,,I,0,,,*25
$PSTI,033,200011.000,301223,2,B,0,G,0,,0,,C,0,,0,,E,0,,0,,R,,,,,I,0,,,*35
$GPGGA,200012.000,3010.4636565,N,09630.6265483,W,5,15,0.7,109.531,M,-24.900,M,1.000,0000*4D
$GNGSA,A,3,04,07,08,09,14,30,,,,,,,1.6,0.7,1.4,1*30
$GNGSA,A,3,27,,,,,,,,,,,,1.6,0.7,1.4,3*33
$GNGSA,A,3,11,23,25,32,34,37,41,43,,,,,1.6,0.7,1.4,4*37
$GNGSA,A,3,,,,,,,,,,,,,1.6,0.7,1.4,6*33
$GNGLL,3010.4636565,N,09630.6265483,W,200012.000,A,D*56
$GNRMC,200012.000,A,3010.4636565,N,09630.6265483,W,000.1,000.0,301223,,,F,V*19
$GNVTG,000.0,T,,M,000.1,N,000.1,K,D*16
$GNZDA,200012.000,30,12,2023,00,00*4A
$PSTI,030,200012.000,A,3010.4636565,N,09630.6265483,W,109.531,0.01,-0.04,0.01,301223,F,1.000,1.000*20
$PSTI,032,200012.000,301223,A,F,-3.100,2.090,7.473,8.356,303.98,5.39,,,,*3F
$PSTI,033,200012.000,301223,2,R,0,G,0,,0,,C,0,,0,,E,0,,0,,R,,,,,I,0,,,*26
$PSTI,033,200012.000,301223,2,B,0,G,0,,0,,C,0,,0,,E,0,,0,,R,,,,,I,0,,,*36
$GPGGA,200013.000,3010.4636093,N,09630.6265713,W,5,15,0.7,109.503,M,-24.900,M,1.000,0000*4B
$GNGSA,A,3,04,07,08,09,14,30,,,,,,,1.6,0.7,1.4,1*30
$GNGSA,A,3,27,,,,,,,,,,,,1.6,0.7,1.4,3*33
$GNGSA,A,3,11,23,25,32,34,37,41,43,,,,,1.6,0.7,1.4,4*37
$GNGSA,A,3,,,,,,,,,,,,,1.6,0.7,1.4,6*33
$GPGSV,3,1,10,09,69,222,46,08,65,098,46,07,49,328,45,04,42,164,33,1*6A
$GPGSV,3,2,10,27,33,050,,30,22,306,38,14,20,252,39,21,11,131,,1*61
$GPGSV,3,3,10,16,10,051,,02,09,142,,1*6B
$GPGSV,2,1,05,09,69,222,42,08,65,098,40,04,42,164,21,30,22,306,36,8*66
$GPGSV,2,2,05,14,20,252,22,8*5A
$GAGSV,3,1,09,27,60,014,49,21,47,269,,19,36,313,,07,35,162,,7*76
$GAGSV,3,2,09,30,15,052,,15,10,102,,13,04,150,,34,03,055,,7*7B
$GAGSV,3,3,09,20,00,000,42,7*4E
$GAGSV,1,1,02,27,60,014,41,20,00,000,07,1*71
$GBGSV,3,1,10,23,59,348,53,43,41,120,33,32,39,267,41,25,36,063,48,1*76
$GBGSV,3,2,10,11,35,088,32,41,28,201,27,34,27,063,45,37,24,288,39,1*74
$GBGSV,3,3,10,28,12,178,,20,10,318,,1*79
$GBGSV,2,1,07,23,59,348,44,43,41,120,27,32,39,267,23,25,36,063,42,5*78
$GBGSV,2,2,07,41,28,201,20,34,27,063,39,37,24,288,34,5*41
$GNGLL,3010.4636093,N,09630.6265713,W,200013.000,A,D*51
$GNRMC,200013.000,A,3010.4636093,N,09630.6265713,W,000.1,000.0,301223,,,F,V*1E
$GNVTG,000.0,T,,M,000.1,N,000.2,K,D*15
$GNZDA,200013.000,30,12,2023,00,00*4B
$PSTI,030,200013.000,A,3010.4636093,N,09630.6265713,W,109.503,0.01,-0.05,0.01,301223,F,1.000,1.000*27
$PSTI,032,200013.000,301223,A,F,-3.137,2.003,7.445,8.323,302.55,6.24,,,,*38
$PSTI,033,200013.000,301223,2,R,0,G,0,,0,,C,0,,0,,E,0,,0,,R,,,,,I,0,,,*27
$PSTI,033,200013.000,301223,2,B,0,G,0,,0,,C,0,,0,,E,0,,0,,R,,,,,I,0,,,*37
$GPGGA,200014.000,3010.4635992,N,09630.6265972,W,5,15,0.7,109.482,M,-24.900,M,1.000,0000*46
$GNGSA,A,3,04,07,08,09,14,30,,,,,,,1.6,0.7,1.4,1*30
$GNGSA,A,3,27,,,,,,,,,,,,1.6,0.7,1.4,3*33
$GNGSA,A,3,11,23,25,32,34,37,41,43,,,,,1.6,0.7,1.4,4*37
$GNGSA,A,3,,,,,,,,,,,,,1.6,0.7,1.4,6*33
$GNGLL,3010.4635992,N,09630.6265972,W,200014.000,A,D*54
$GNRMC,200014.000,A,3010.4635992,N,09630.6265972,W,000.1,000.0,301223,,,F,V*1B
$GNVTG,000.0,T,,M,000.1,N,000.2,K,D*15
$GNZDA,200014.000,30,12,2023,00,00*4C
$PSTI,030,200014.000,A,3010.4635992,N,09630.6265972,W,109.482,0.00,-0.04,0.01,301223,F,1.000,1.000*2A
$PSTI,032,200014.000,301223,A,F,-3.179,1.984,7.424,8.316,301.97,5.50,,,,*3C
$PSTI,033,200014.000,301223,2,R,0,G,0,,0,,C,0,,0,,E,0,,0,,R,,,,,I,0,,,*20
$PSTI,033,200014.000,301223,2,B,0,G,0,,0,,C,0,,0,,E,0,,0,,R,,,,,I,0,,,*30
$GPGGA,200015.000,3010.4635554,N,09630.6266137,W,5,15,0.7,109.415,M,-24.900,M,1.000,0000*45
$GNGSA,A,3,04,07,08,09,14,30,,,,,,,1.6,0.7,1.4,1*30
$GNGSA,A,3,27,,,,,,,,,,,,1.6,0.7,1.4,3*33
$GNGSA,A,3,11,23,25,32,34,37,41,43,,,,,1.6,0.7,1.4,4*37
$GNGSA,A,3,,,,,,,,,,,,,1.6,0.7,1.4,6*33
$GNGLL,3010.4635554,N,09630.6266137,W,200015.000,A,D*59
$GNRMC,200015.000,A,3010.4635554,N,09630.6266137,W,000.1,000.0,301223,,,F,V*16
$GNVTG,000.0,T,,M,000.1,N,000.2,K,D*15
$GNZDA,200015.000,30,12,2023,00,00*4D
$PSTI,030,200015.000,A,3010.4635554,N,09630.6266137,W,109.415,0.00,-0.05,0.01,301223,F,1.000,1.000*28
$PSTI,032,200015.000,301223,A,F,-3.205,1.903,7.357,8.247,300.70,5.45,,,,*30
$PSTI,033,200015.000,301223,2,R,0,G,0,,0,,C,0,,0,,E,0,,0,,R,,,,,I,0,,,*21
$PSTI,033,200015.000,301223,2,B,0,G,0,,0,,C,0,,0,,E,0,,0,,R,,,,,I,0,,,*31
$GPGGA,200016.000,3010.4634915,N,09630.6266467,W,5,15,0.7,109.339,M,-24.900,M,1.000,0000*47
$GNGSA,A,3,04,07,08,09,14,30,,,,,,,1.6,0.7,1.4,1*30
$GNGSA,A,3,27,,,,,,,,,,,,1.6,0.7,1.4,3*33
$GNGSA,A,3,11,23,25,32,34,37,41,43,,,,,1.6,0.7,1.4,4*37
$GNGSA,A,3,,,,,,,,,,,,,1.6,0.7,1.4,6*33
$GPGSV,3,1,10,09,69,222,46,08,65,098,46,07,49,328,45,04,42,164,33,1*6A
$GPGSV,3,2,10,27,33,050,,30,22,306,38,14,20,252,39,21,11,131,,1*61
$GPGSV,3,3,10,16,10,051,,02,09,142,,1*6B
$GPGSV,2,1,05,09,69,222,42,08,65,098,39,04,42,164,21,30,22,306,36,8*68
$GPGSV,2,2,05,14,20,252,22,8*5A
$GAGSV,3,1,09,27,60,014,49,21,47,269,,19,36,313,,07,35,162,,7*76
$GAGSV,3,2,09,30,15,052,,15,10,102,,13,04,150,,34,03,055,,7*7B
$GAGSV,3,3,09,20,00,000,42,7*4E
$GAGSV,1,1,02,27,60,014,41,20,00,000,05,1*73
$GBGSV,3,1,10,23,59,348,53,43,41,120,33,32,39,267,42,25,36,063,48,1*75
$GBGSV,3,2,10,11,35,088,32,41,28,201,27,34,27,063,45,37,24,288,40,1*7A
$GBGSV,3,3,10,28,12,178,,20,10,318,,1*79
$GBGSV,2,1,07,23,59,348,44,43,41,120,27,32,39,267,22,25,36,063,42,5*79
$GBGSV,2,2,07,41,28,201,21,34,27,063,39,37,24,288,34,5*40
$GNGLL,3010.4634915,N,09630.6266467,W,200016.000,A,D*52
$GNRMC,200016.000,A,3010.4634915,N,09630.6266467,W,000.1,000.0,301223,,,F,V*1D
$GNVTG,000.0,T,,M,000.1,N,000.2,K,D*15
$GNZDA,200016.000,30,12,2023,00,00*4E
$PSTI,030,200016.000,A,3010.4634915,N,09630.6266467,W,109.339,0.01,-0.05,0.01,301223,F,1.000,1.000*2B
$PSTI,032,200016.000,301223,A,F,-3.258,1.785,7.281,8.174,298.71,6.33,,,,*31
$PSTI,033,200016.000,301223,2,R,0,G,0,,0,,C,0,,0,,E,0,,0,,R,,,,,I,0,,,*22
$PSTI,033,200016.000,301223,2,B,0,G,0,,0,,C,0,,0,,E,0,,0,,R,,,,,I,0,,,*32
$GPGGA,200017.000,3010.4634501,N,09630.6266746,W,5,15,0.7,109.232,M,-24.900,M,1.000,0000*45
$GNGSA,A,3,04,07,08,09,14,30,,,,,,,1.6,0.7,1.4,1*30
$GNGSA,A,3,27,,,,,,,,,,,,1.6,0.7,1.4,3*33
$GNGSA,A,3,11,23,25,32,34,37,41,43,,,,,1.6,0.7,1.4,4*37
$GNGSA,A,3,,,,,,,,,,,,,1.6,0.7,1.4,6*33
$GNGLL,3010.4634501,N,09630.6266746,W,200017.000,A,D*5A
$GNRMC,200017.000,A,3010.4634501,N,09630.6266746,W,000.1,000.0,301223,,,F,V*15
$GNVTG,000.0,T,,M,000.1,N,000.2,K,D*15
$GNZDA,200017.000,30,12,2023,00,00*4F
$PSTI,030,200017.000,A,3010.4634501,N,09630.6266746,W,109.232,0.01,-0.05,0.01,301223,F,1.000,1.000*29
$PSTI,032,200017.000,301223,A,F,-3.303,1.708,7.174,8.080,297.35,5.64,,,,*37
$PSTI,033,200017.000,301223,2,R,0,G,0,,0,,C,0,,0,,E,0,,0,,R,,,,,I,0,,,*23
$PSTI,033,200017.000,301223,2,B,0,G,0,,0,,C,0,,0,,E,0,,0,,R,,,,,I,0,,,*33
$GPGGA,200018.000,3010.4634201,N,09630.6266947,W,5,15,0.7,109.246,M,-24.900,M,1.000,0000*41
$GNGSA,A,3,04,07,08,09,14,30,,,,,,,1.6,0.7,1.4,1*30
$GNGSA,A,3,27,,,,,,,,,,,,1.6,0.7,1.4,3*33
$GNGSA,A,3,11,23,25,32,34,37,41,43,,,,,1.6,0.7,1.4,4*37
$GNGSA,A,3,,,,,,,,,,,,,1.6,0.7,1.4,6*33
$GNGLL,3010.4634201,N,09630.6266947,W,200018.000,A,D*5D
$GNRMC,200018.000,A,3010.4634201,N,09630.6266947,W,000.1,000.0,301223,,,F,V*12
$GNVTG,000.0,T,,M,000.1,N,000.2,K,D*15
$GNZDA,200018.000,30,12,2023,00,00*40
$PSTI,030,200018.000,A,3010.4634201,N,09630.6266947,W,109.246,0.01,-0.05,0.01,301223,F,1.000,1.000*2D
$PSTI,032,200018.000,301223,A,F,-3.335,1.653,7.188,8.094,296.36,5.55,,,,*34
$PSTI,033,200018.000,301223,2,R,0,G,0,,0,,C,0,,0,,E,0,,0,,R,,,,,I,0,,,*2C
$PSTI,033,200018.000,301223,2,B,0,G,0,,0,,C,0,,0,,E,0,,0,,R,,,,,I,0,,,*3C
$GPGGA,200019.000,3010.4633121,N,09630.6267582,W,5,15,0.7,109.116,M,-24.900,M,1.000,0000*44
$GNGSA,A,3,04,07,08,09,14,30,,,,,,,1.6,0.7,1.4,1*30
$GNGSA,A,3,27,,,,,,,,,,,,1.6,0.7,1.4,3*33
$GNGSA,A,3,11,23,25,32,34,37,41,43,,,,,1.6,0.7,1.4,4*37
$GNGSA,A,3,,,,,,,,,,,,,1.6,0.7,1.4,6*33
$GPGSV,3,1,10,09,69,222,46,08,65,098,46,07,49,328,46,04,42,164,34,1*6E
$GPGSV,3,2,10,27,33,050,,30,22,306,38,14,20,252,39,21,11,131,,1*61
$GPGSV,3,3,10,16,10,051,,02,09,142,,1*6B
$GPGSV,2,1,05,09,69,222,42,08,65,098,40,04,42,164,21,30,22,306,36,8*66
$GPGSV,2,2,05,14,20,252,21,8*59
$GAGSV,3,1,09,27,60,014,49,21,47,269,,19,36,313,,07,35,162,,7*76
$GAGSV,3,2,09,30,15,052,,15,10,102,,13,04,150,,34,03,055,,7*7B
$GAGSV,3,3,09,20,00,000,42,7*4E
$GAGSV,1,1,02,27,60,014,41,20,00,000,11,1*76
$GBGSV,3,1,10,23,59,348,53,43,41,120,33,32,39,267,42,25,36,063,48,1*75
$GBGSV,3,2,10,11,35,088,32,41,28,201,27,34,27,063,46,37,24,288,40,1*79
$GBGSV,3,3,10,28,12,178,,20,10,318,,1*79
$GBGSV,2,1,07,23,59,348,44,43,41,120,28,32,39,267,22,25,36,063,42,5*76
$GBGSV,2,2,07,41,28,201,21,34,27,063,39,37,24,288,34,5*40
$GNGLL,3010.4633121,N,09630.6267582,W,200019.000,A,D*5E
$GNRMC,200019.000,A,3010.4633121,N,09630.6267582,W,000.1,000.0,301223,,,F,V*11
$GNVTG,000.0,T,,M,000.1,N,000.1,K,D*16
$GNZDA,200019.000,30,12,2023,00,00*41
$PSTI,030,200019.000,A,3010.4633121,N,09630.6267582,W,109.116,0.01,-0.04,0.01,301223,F,1.000,1.000*29
$PSTI,032,200019.000,301223,A,F,-3.437,1.453,7.058,7.984,292.92,6.74,,,,*33
$PSTI,033,200019.000,301223,2,R,0,G,0,,0,,C,0,,0,,E,0,,0,,R,,,,,I,0,,,*2D
$PSTI,033,200019.000,301223,2,B,0,G,0,,0,,C,0,,0,,E,0,,0,,R,,,,,I,0,,,*3D
$GPGGA,200020.000,3010.4632746,N,09630.6267850,W,5,15,0.7,109.071,M,-24.900,M,1.000,0000*4A
$GNGSA,A,3,04,07,08,09,14,30,,,,,,,1.6,0.7,1.4,1*30
$GNGSA,A,3,27,,,,,,,,,,,,1.6,0.7,1.4,3*33
$GNGSA,A,3,11,23,25,32,34,37,41,43,,,,,1.6,0.7,1.4,4*37
$GNGSA,A,3,,,,,,,,,,,,,1.6,0.7,1.4,6*33
$GNGLL,3010.4632746,N,09630.6267850,W,200020.000,A,D*50
$GNRMC,200020.000,A,3010.4632746,N,09630.6267850,W,000.1,000.0,301223,,,F,V*1F
$GNVTG,000.0,T,,M,000.1,N,000.2,K,D*15
$GNZDA,200020.000,30,12,2023,00,00*4B
$PSTI,030,200020.000,A,3010.4632746,N,09630.6267850,W,109.071,0.01,-0.04,0.02,301223,F,1.000,1.000*24
$PSTI,032,200020.000,301223,A,F,-3.480,1.384,7.013,7.951,291.69,5.74,,,,*3B
$PSTI,033,200020.000,301223,2,R,0,G,0,,0,,C,0,,0,,E,0,,0,,R,,,,,I,0,,,*27
$PSTI,033,200020.000,301223,2,B,0,G,0,,0,,C,0,,0,,E,0,,0,,R,,,,,I,0,,,*37
$GPGGA,200021.000,3010.4632148,N,09630.6268185,W,5,15,0.7,109.033,M,-24.900,M,1.000,0000*4B
$GNGSA,A,3,04,07,08,09,14,30,,,,,,,1.6,0.7,1.4,1*30
$GNGSA,A,3,27,,,,,,,,,,,,1.6,0.7,1.4,3*33
$GNGSA,A,3,11,23,25,32,34,37,41,43,,,,,1.6,0.7,1.4,4*37
$GNGSA,A,3,,,,,,,,,,,,,1.6,0.7,1.4,6*33
$GNGLL,3010.4632148,N,09630.6268185,W,200021.000,A,D*57
$GNRMC,200021.000,A,3010.4632148,N,09630.6268185,W,000.1,000.0,301223,,,F,V*18
$GNVTG,000.0,T,,M,000.1,N,000.2,K,D*15
$GNZDA,200021.000,30,12,2023,00,00*4A
$PSTI,030,200021.000,A,3010.4632148,N,09630.6268185,W,109.033,0.01,-0.05,0.01,301223,F,1.000,1.000*27
$PSTI,032,200021.000,301223,A,F,-3.534,1.274,6.975,7.922,289.82,5.66,,,,*39
$PSTI,033,200021.000,301223,2,R,0,G,0,,0,,C,0,,0,,E,0,,0,,R,,,,,I,0,,,*26
$PSTI,033,200021.000,301223,2,B,0,G,0,,0,,C,0,,0,,E,0,,0,,R,,,,,I,0,,,*36
$GPGGA,200022.000,3010.4631269,N,09630.6268499,W,5,15,0.7,108.967,M,-24.900,M,1.000,0000*4A
$GNGSA,A,3,04,07,08,09,14,30,,,,,,,1.6,0.7,1.4,1*30
$GNGSA,A,3,27,,,,,,,,,,,,1.6,0.7,1.4,3*33
$GNGSA,A,3,11,23,25,32,34,37,41,43,,,,,1.6,0.7,1.4,4*37
$GNGSA,A,3,,,,,,,,,,,,,1.6,0.7,1.4,6*33
$GPGSV,3,1,10,09,69,222,46,08,65,098,46,07,49,328,46,04,42,164,34,1*6E
$GPGSV,3,2,10,27,33,050,,30,22,306,38,14,20,252,39,21,11,131,,1*61
$GPGSV,3,3,10,16,10,051,,02,09,142,,1*6B
$GPGSV,2,1,05,09,69,222,42,08,65,098,40,04,42,164,21,30,22,306,36,8*66
$GPGSV,2,2,05,14,20,252,20,8*58
$GAGSV,3,1,09,27,60,014,49,21,47,269,,19,36,313,,07,35,162,,7*76
$GAGSV,3,2,09,30,15,052,,15,10,102,,13,04,150,,34,03,055,,7*7B
$GAGSV,3,3,09,20,00,000,42,7*4E
$GAGSV,1,1,02,27,60,014,41,20,00,000,07,1*71
$GBGSV,3,1,10,23,59,348,53,43,41,120,32,32,39,267,42,25,36,063,48,1*74
$GBGSV,3,2,10,11,35,088,33,41,28,201,27,34,27,063,46,37,24,288,40,1*78
$GBGSV,3,3,10,28,12,178,,20,10,318,,1*79
$GBGSV,2,1,07,23,59,348,44,43,41,120,27,32,39,267,21,25,36,063,42,5*7A
$GBGSV,2,2,07,41,28,201,20,34,27,063,39,37,24,288,34,5*41
$GNGLL,3010.4631269,N,09630.6268499,W,200022.000,A,D*5F
$GNRMC,200022.000,A,3010.4631269,N,09630.6268499,W,000.1,000.0,301223,,,F,V*10
$GNVTG,000.0,T,,M,000.1,N,000.2,K,D*15
$GNZDA,200022.000,30,12,2023,00,00*49
$PSTI,030,200022.000,A,3010.4631269,N,09630.6268499,W,108.967,0.01,-0.04,0.01,301223,F,1.000,1.000*27
$PSTI,032,200022.000,301223,A,F,-3.584,1.111,6.909,7.862,287.22,6.57,,,,*3A
$PSTI,033,200022.000,301223,2,R,0,G,0,,0,,C,0,,0,,E,0,,0,,R,,,,,I,0,,,*25
$PSTI,033,200022.000,301223,2,B,0,G,0,,0,,C,0,,0,,E,0,,0,,R,,,,,I,0,,,*35
$GPGGA,200023.000,3010.4630899,N,09630.6268719,W,5,15,0.7,108.939,M,-24.900,M,1.000,0000*4F
$GNGSA,A,3,04,07,08,09,14,30,,,,,,,1.6,0.7,1.4,1*30
$GNGSA,A,3,27,,,,,,,,,,,,1.6,0.7,1.4,3*33
$GNGSA,A,3,11,23,25,32,34,37,41,43,,,,,1.6,0.7,1.4,4*37
$GNGSA,A,3,,,,,,,,,,,,,1.6,0.7,1.4,6*33
$GNGLL,3010.4630899,N,09630.6268719,W,200023.000,A,D*51
$GNRMC,200023.000,A,3010.4630899,N,09630.6268719,W,000.1,000.0,301223,,,F,V*1E
$GNVTG,000.0,T,,M,000.1,N,000.2,K,D*15
$GNZDA,200023.000,30,12,2023,00,00*48
$PSTI,030,200023.000,A,3010.4630899,N,09630.6268719,W,108.939,0.01,-0.05,0.00,301223,F,1.000,1.000*22
$PSTI,032,200023.000,301223,A,F,-3.620,1.043,6.881,7.844,286.07,5.80,,,,*3A
$PSTI,033,200023.000,301223,2,R,0,G,0,,0,,C,0,,0,,E,0,,0,,R,,,,,I,0,,,*24
$PSTI,033,200023.000,301223,2,B,0,G,0,,0,,C,0,,0,,E,0,,0,,R,,,,,I,0,,,*34
$GPGGA,200024.000,3010.4630178,N,09630.6268832,W,5,15,0.7,108.850,M,-24.900,M,1.000,0000*46
$GNGSA,A,3,04,07,08,09,14,30,,,,,,,1.6,0.7,1.4,1*30
$GNGSA,A,3,27,,,,,,,,,,,,1.6,0.7,1.4,3*33
$GNGSA,A,3,11,23,25,32,34,37,41,43,,,,,1.6,0.7,1.4,4*37
$GNGSA,A,3,,,,,,,,,,,,,1.6,0.7,1.4,6*33
$GNGLL,3010.4630178,N,09630.6268832,W,200024.000,A,D*56
$GNRMC,200024.000,A,3010.4630178,N,09630.6268832,W,000.1,000.0,301223,,,F,V*19
$GNVTG,000.0,T,,M,000.1,N,000.1,K,D*16
$GNZDA,200024.000,30,12,2023,00,00*4F
$PSTI,030,200024.000,A,3010.4630178,N,09630.6268832,W,108.850,0.01,-0.04,0.01,301223,F,1.000,1.000*2B
$PSTI,032,200024.000,301223,A,F,-3.638,0.910,6.792,7.758,284.04,5.76,,,,*3D
$PSTI,033,200024.000,301223,2,R,0,G,0,,0,,C,0,,0,,E,0,,0,,R,,,,,I,0,,,*23
$PSTI,033,200024.000,301223,2,B,0,G,0,,0,,C,0,,0,,E,0,,0,,R,,,,,I,0,,,*33
$GPGGA,200025.000,3010.4629107,N,09630.6269104,W,5,15,0.7,108.767,M,-24.900,M,1.000,0000*41
$GNGSA,A,3,04,07,08,09,14,30,,,,,,,1.6,0.7,1.4,1*30
$GNGSA,A,3,27,,,,,,,,,,,,1.6,0.7,1.4,3*33
$GNGSA,A,3,11,23,25,32,34,37,41,43,,,,,1.6,0.7,1.4,4*37
$GNGSA,A,3,,,,,,,,,,,,,1.6,0.7,1.4,6*33
$GPGSV,3,1,10,09,69,222,46,08,65,098,46,07,49,328,45,04,42,164,34,1*6D
$GPGSV,3,2,10,27,33,050,,30,22,306,38,14,20,252,39,21,11,131,,1*61
$GPGSV,3,3,10,16,10,051,,02,09,142,,1*6B
$GPGSV,2,1,05,09,69,222,42,08,65,098,40,04,42,164,21,30,22,306,36,8*66
$GPGSV,2,2,05,14,20,252,20,8*58
$GAGSV,3,1,09,27,60,014,49,21,47,269,,19,36,313,,07,35,162,,7*76
$GAGSV,3,2,09,30,15,052,,15,10,102,,13,04,150,,34,03,055,,7*7B
$GAGSV,3,3,09,20,00,000,42,7*4E
$GAGSV,1,1,02,27,60,014,41,20,00,000,06,1*70
$GBGSV,3,1,10,23,59,348,53,43,41,120,31,32,39,267,42,25,36,063,48,1*77
$GBGSV,3,2,10,11,35,088,33,41,28,201,27,34,27,063,46,37,24,288,39,1*76
$GBGSV,3,3,10,28,12,178,,20,10,318,,1*79
$GBGSV,2,1,07,23,59,348,44,43,41,120,27,32,39,267,21,25,36,063,41,5*79
$GBGSV,2,2,07,41,28,201,20,34,27,063,39,37,24,288,34,5*41
$GNGLL,3010.4629107,N,09630.6269104,W,200025.000,A,D*5A
$GNRMC,200025.000,A,3010.4629107,N,09630.6269104,W,000.1,000.0,301223,,,F,V*15
$GNVTG,000.0,T,,M,000.1,N,000.2,K,D*15
$GNZDA,200025.000,30,12,2023,00,00*4E
$PSTI,030,200025.000,A,3010.4629107,N,09630.6269104,W,108.767,0.01,-0.05,0.01,301223,F,1.000,1.000*2D
$PSTI,032,200025.000,301223,A,F,-3.681,0.712,6.709,7.686,280.94,6.71,,,,*3B
$PSTI,033,200025.000,301223,2,R,0,G,0,,0,,C,0,,0,,E,0,,0,,R,,,,,I,0,,,*22
$PSTI,033,200025.000,301223,2,B,0,G,0,,0,,C,0,,0,,E,0,,0,,R,,,,,I,0,,,*32
$GPGGA,200026.000,3010.4628483,N,09630.6269371,W,5,15,0.7,108.674,M,-24.900,M,1.000,0000*49
$GNGSA,A,3,04,07,08,09,14,30,,,,,,,1.6,0.7,1.4,1*30
$GNGSA,A,3,27,,,,,,,,,,,,1.6,0.7,1.4,3*33
$GNGSA,A,3,11,23,25,32,34,37,41,43,,,,,1.6,0.7,1.4,4*37
$GNGSA,A,3,,,,,,,,,,,,,1.6,0.7,1.4,6*33
$GNGLL,3010.4628483,N,09630.6269371,W,200026.000,A,D*51
$GNRMC,200026.000,A,3010.4628483,N,09630.6269371,W,000.1,000.0,301223,,,F,V*1E
$GNVTG,000.0,T,,M,000.1,N,000.2,K,D*15
$GNZDA,200026.000,30,12,2023,00,00*4D
$PSTI,030,200026.000,A,3010.4628483,N,09630.6269371,W,108.674,0.01,-0.04,0.01,301223,F,1.000,1.000*24
$PSTI,032,200026.000,301223,A,F,-3.724,0.596,6.616,7.615,279.10,5.96,,,,*3D
$PSTI,033,200026.000,301223,2,R,0,G,0,,0,,C,0,,0,,E,0,,0,,R,,,,,I,0,,,*21
$PSTI,033,200026.000,301223,2,B,0,G,0,,0,,C,0,,0,,E,0,,0,,R,,,,,I,0,,,*31
$GPGGA,200027.000,3010.4627702,N,09630.6269530,W,5,15,0.7,108.605,M,-24.900,M,1.000,0000*48
$GNGSA,A,3,04,07,08,09,14,30,,,,,,,1.6,0.7,1.4,1*30
$GNGSA,A,3,27,,,,,,,,,,,,1.6,0.7,1.4,3*33
$GNGSA,A,3,11,23,25,32,34,37,41,43,,,,,1.6,0.7,1.4,4*37
$GNGSA,A,3,,,,,,,,,,,,,1.6,0.7,1.4,6*33
$GNGLL,3010.4627702,N,09630.6269530,W,200027.000,A,D*56
$GNRMC,200027.000,A,3010.4627702,N,09630.6269530,W,000.1,000.0,301223,,,F,V*19
$GNVTG,000.0,T,,M,000.1,N,000.2,K,D*15
$GNZDA,200027.000,30,12,2023,00,00*4C
$PSTI,030,200027.000,A,3010.4627702,N,09630.6269530,W,108.605,0.00,-0.04,0.01,301223,F,1.000,1.000*24
$PSTI,032,200027.000,301223,A,F,-3.750,0.452,6.547,7.559,276.88,5.90,,,,*32
$PSTI,033,200027.000,301223,2,R,0,G,0,,0,,C,0,,0,,E,0,,0,,R,,,,,I,0,,,*20
$PSTI,033,200027.000,301223,2,B,0,G,0,,0,,C,0,,0,,E,0,,0,,R,,,,,I,0,,,*30
$GPGGA,200028.000,3010.4626686,N,09630.6269688,W,5,15,0.7,108.506,M,-24.900,M,1.000,0000*4B
$GNGSA,A,3,04,07,08,09,14,30,,,,,,,1.6,0.7,1.4,1*30
$GNGSA,A,3,27,,,,,,,,,,,,1.6,0.7,1.4,3*33
$GNGSA,A,3,11,23,25,32,34,37,41,43,,,,,1.6,0.7,1.4,4*37
$GNGSA,A,3,,,,,,,,,,,,,1.6,0.7,1.4,6*33
$GPGSV,3,1,10,09,69,222,46,08,65,098,46,07,49,328,45,04,42,164,34,1*6D
$GPGSV,3,2,10,27,33,050,,30,22,306,38,14,20,252,39,21,11,131,,1*61
$GPGSV,3,3,10,16,10,051,,02,09,142,,1*6B
$GPGSV,2,1,05,09,69,222,42,08,65,098,40,04,42,164,22,30,22,306,36,8*65
$GPGSV,2,2,05,14,20,252,19,8*52
$GAGSV,3,1,09,27,60,014,49,21,47,269,,19,36,313,,07,35,162,,7*76
$GAGSV,3,2,09,30,15,052,,15,10,102,,13,04,150,,34,03,055,,7*7B
$GAGSV,3,3,09,20,00,000,42,7*4E
$GAGSV,1,1,02,27,60,014,41,20,00,000,10,1*77
$GBGSV,3,1,10,23,59,348,53,43,41,120,31,32,39,267,42,25,36,063,48,1*77
$GBGSV,3,2,10,11,35,087,33,41,28,201,27,34,27,063,45,37,24,288,40,1*74
$GBGSV,3,3,10,28,12,178,,20,10,318,,1*79
$GBGSV,2,1,07,23,59,348,44,43,41,120,27,32,39,267,20,25,36,063,41,5*78
$GBGSV,2,2,07,41,28,201,20,34,27,063,38,37,24,288,33,5*47
$GNGLL,3010.4626686,N,09630.6269688,W,200028.000,A,D*55
$GNRMC,200028.000,A,3010.4626686,N,09630.6269688,W,000.1,000.0,301223,,,F,V*1A
$GNVTG,000.0,T,,M,000.1,N,000.2,K,D*15
$GNZDA,200028.000,30,12,2023,00,00*43
$PSTI,030,200028.000,A,3010.4626686,N,09630.6269688,W,108.506,0.01,-0.05,0.01,301223,F,1.000,1.000*27
$PSTI,032,200028.000,301223,A,F,-3.775,0.264,6.448,7.477,274.01,6.89,,,,*32
$PSTI,033,200028.000,301223,2,R,0,G,0,,0,,C,0,,0,,E,0,,0,,R,,,,,I,0,,,*2F
$PSTI,033,200028.000,301223,2,B,0,G,0,,0,,C,0,,0,,E,0,,0,,R,,,,,I,0,,,*3F
$GPGGA,200029.000,3010.4626118,N,09630.6269862,W,5,15,0.7,108.408,M,-24.900,M,1.000,0000*4F
$GNGSA,A,3,04,07,08,09,14,30,,,,,,,1.6,0.7,1.4,1*30
$GNGSA,A,3,27,,,,,,,,,,,,1.6,0.7,1.4,3*33
$GNGSA,A,3,11,23,25,32,34,37,41,43,,,,,1.6,0.7,1.4,4*37
$GNGSA,A,3,,,,,,,,,,,,,1.6,0.7,1.4,6*33
$GNGLL,3010.4626118,N,09630.6269862,W,200029.000,A,D*5E
$GNRMC,200029.000,A,3010.4626118,N,09630.6269862,W,000.1,000.0,301223,,,F,V*11
$GNVTG,000.0,T,,M,000.1,N,000.1,K,D*16
$GNZDA,200029.000,30,12,2023,00,00*42
$PSTI,030,200029.000,A,3010.4626118,N,09630.6269862,W,108.408,0.01,-0.04,0.01,301223,F,1.000,1.000*22
$PSTI,032,200029.000,301223,A,F,-3.803,0.160,6.350,7.403,272.40,6.12,,,,*36
$PSTI,033,200029.000,301223,2,R,0,G,0,,0,,C,0,,0,,E,0,,0,,R,,,,,I,0,,,*2E
$PSTI,033,200029.000,301223,2,B,0,G,0,,0,,C,0,,0,,E,0,,0,,R,,,,,I,0,,,*3E
$GPGGA,200030.000,3010.4625457,N,09630.6269922,W,5,15,0.7,108.323,M,-24.900,M,1.000,0000*41
$GNGSA,A,3,04,07,08,09,14,30,,,,,,,1.6,0.7,1.4,1*30
$GNGSA,A,3,27,,,,,,,,,,,,1.6,0.7,1.4,3*33
$GNGSA,A,3,11,23,25,32,34,37,41,43,,,,,1.6,0.7,1.4,4*37
$GNGSA,A,3,,,,,,,,,,,,,1.6,0.7,1.4,6*33
$GNGLL,3010.4625457,N,09630.6269922,W,200030.000,A,D*5E
$GNRMC,200030.000,A,3010.4625457,N,09630.6269922,W,000.1,000.0,301223,,,F,V*11
$GNVTG,000.0,T,,M,000.1,N,000.2,K,D*15
$GNZDA,200030.000,30,12,2023,00,00*4A
$PSTI,030,200030.000,A,3010.4625457,N,09630.6269922,W,108.323,0.01,-0.04,0.01,301223,F,1.000,1.000*2C
$PSTI,032,200030.000,301223,A,F,-3.813,0.037,6.265,7.334,270.56,6.07,,,,*39
$PSTI,033,200030.000,301223,2,R,0,G,0,,0,,C,0,,0,,E,0,,0,,R,,,,,I,0,,,*26
$PSTI,033,200030.000,301223,2,B,0,G,0,,0,,C,0,,0,,E,0,,0,,R,,,,,I,0,,,*36
$GPGGA,200031.000,3010.4624493,N,09630.6269930,W,5,15,0.7,108.208,M,-24.900,M,1.000,0000*42
$GNGSA,A,3,04,07,08,09,14,30,,,,,,,1.6,0.7,1.4,1*30
$GNGSA,A,3,27,,,,,,,,,,,,1.6,0.7,1.4,3*33
$GNGSA,A,3,11,23,25,32,34,37,41,43,,,,,1.6,0.7,1.4,4*37
$GNGSA,A,3,,,,,,,,,,,,,1.6,0.7,1.4,6*33
$GPGSV,3,1,10,09,69,222,46,08,65,098,46,07,49,328,45,04,42,164,34,1*6D
$GPGSV,3,2,10,27,33,050,,30,22,306,38,14,20,252,40,21,11,131,,1*6F
$GPGSV,3,3,10,16,10,051,,02,09,142,,1*6B
$GPGSV,2,1,05,09,69,222,42,08,65,098,40,04,42,164,21,30,22,306,36,8*66
$GPGSV,2,2,05,14,20,252,18,8*53
$GAGSV,3,1,09,27,60,014,49,21,47,269,,19,36,313,,07,35,162,,7*76
$GAGSV,3,2,09,30,15,052,,15,10,102,,13,04,150,,34,03,055,,7*7B
$GAGSV,3,3,09,20,00,000,42,7*4E
$GAGSV,1,1,02,27,60,014,41,20,00,000,07,1*71
$GBGSV,3,1,10,23,59,348,53,43,41,120,30,32,39,267,42,25,36,063,48,1*76
$GBGSV,3,2,10,11,35,087,34,41,28,201,28,34,27,063,45,37,24,288,39,1*72
$GBGSV,3,3,10,28,12,178,,20,10,318,,1*79
$GBGSV,2,1,07,23,59,348,44,43,41,120,28,32,39,267,20,25,36,063,42,5*74
$GBGSV,2,2,07,41,28,201,20,34,27,063,39,37,24,288,34,5*41
$GNGLL,3010.4624493,N,09630.6269930,W,200031.000,A,D*55
$GNRMC,200031.000,A,3010.4624493,N,09630.6269930,W,000.1,000.0,301223,,,F,V*1A
$GNVTG,000.0,T,,M,000.1,N,000.2,K,D*15
$GNZDA,200031.000,30,12,2023,00,00*4B
$PSTI,030,200031.000,A,3010.4624493,N,09630.6269930,W,108.208,0.01,-0.05,0.01,301223,F,1.000,1.000*2E
$PSTI,032,200031.000,301223,A,F,-3.814,-0.141,6.150,7.238,267.89,7.10,,,,*19
$PSTI,033,200031.000,301223,2,R,0,G,0,,0,,C,0,,0,,E,0,,0,,R,,,,,I,0,,,*27
$PSTI,033,200031.000,301223,2,B,0,G,0,,0,,C,0,,0,,E,0,,0,,R,,,,,I,0,,,*37
$GPGGA,200032.000,3010.4624154,N,09630.6269828,W,5,15,0.7,108.118,M,-24.900,M,1.000,0000*45
$GNGSA,A,3,04,07,08,09,14,30,,,,,,,1.6,0.7,1.4,1*30
$GNGSA,A,3,27,,,,,,,,,,,,1.6,0.7,1.4,3*33
$GNGSA,A,3,11,23,25,32,34,37,41,43,,,,,1.6,0.7,1.4,4*37
$GNGSA,A,3,,,,,,,,,,,,,1.6,0.7,1.4,6*33
$GNGLL,3010.4624154,N,09630.6269828,W,200032.000,A,D*50
$GNRMC,200032.000,A,3010.4624154,N,09630.6269828,W,000.1,000.0,301223,,,F,V*1F
$GNVTG,000.0,T,,M,000.1,N,000.2,K,D*15
$GNZDA,200032.000,30,12,2023,00,00*48
$PSTI,030,200032.000,A,3010.4624154,N,09630.6269828,W,108.118,0.01,-0.04,0.02,301223,F,1.000,1.000*2B
$PSTI,032,200032.000,301223,A,F,-3.798,-0.203,6.060,7.155,266.93,6.32,,,,*15
$PSTI,033,200032.000,301223,2,R,0,G,0,,0,,C,0,,0,,E,0,,0,,R,,,,,I,0,,,*24
$PSTI,033,200032.000,301223,2,B,0,G,0,,0,,C,0,,0,,E,0,,0,,R,,,,,I,0,,,*34
$GPGGA,200033.000,3010.4623648,N,09630.6269732,W,5,15,0.7,108.075,M,-24.900,M,1.000,0000*47
$GNGSA,A,3,04,07,08,09,14,30,,,,,,,1.6,0.7,1.4,1*30
$GNGSA,A,3,27,,,,,,,,,,,,1.6,0.7,1.4,3*33
$GNGSA,A,3,11,23,25,32,34,37,41,43,,,,,1.6,0.7,1.4,4*37
$GNGSA,A,3,,,,,,,,,,,,,1.6,0.7,1.4,6*33
$GNGLL,3010.4623648,N,09630.6269732,W,200033.000,A,D*58
$GNRMC,200033.000,A,3010.4623648,N,09630.6269732,W,000.1,000.0,301223,,,F,V*17
$GNVTG,000.0,T,,M,000.1,N,000.2,K,D*15
$GNZDA,200033.000,30,12,2023,00,00*49
$PSTI,030,200033.000,A,3010.4623648,N,09630.6269732,W,108.075,0.01,-0.05,0.01,301223,F,1.000,1.000*2B
$PSTI,032,200033.000,301223,A,F,-3.782,-0.297,6.017,7.113,265.51,6.25,,,,*1B
$PSTI,033,200033.000,301223,2,R,0,G,0,,0,,C,0,,0,,E,0,,0,,R,,,,,I,0,,,*25
$PSTI,033,200033.000,301223,2,B,0,G,0,,0,,C,0,,0,,E,0,,0,,R,,,,,I,0,,,*35
$GPGGA,200034.000,3010.4623063,N,09630.6269499,W,5,15,0.7,108.046,M,-24.900,M,1.000,0000*4D
$GNGSA,A,3,04,07,08,09,14,30,,,,,,,1.6,0.7,1.4,1*30
$GNGSA,A,3,27,,,,,,,,,,,,1.6,0.7,1.4,3*33
$GNGSA,A,3,11,23,25,32,34,37,41,43,,,,,1.6,0.7,1.4,4*37
$GNGSA,A,3,,,,,,,,,,,,,1.6,0.7,1.4,6*33
$GPGSV,3,1,10,09,69,222,46,08,65,098,46,07,49,328,45,04,42,164,35,1*6C
$GPGSV,3,2,10,27,33,050,,30,22,306,39,14,20,252,40,21,11,131,,1*6E
$GPGSV,3,3,10,16,10,051,,02,09,142,,1*6B
$GPGSV,2,1,05,09,69,222,42,08,65,098,40,04,42,164,22,30,22,306,35,8*66
$GPGSV,2,2,05,14,20,252,17,8*5C
$GAGSV,3,1,09,27,60,014,49,21,47,269,,19,36,313,,07,35,162,,7*76
$GAGSV,3,2,09,30,15,052,,15,10,102,,13,04,150,,34,03,055,,7*7B
$GAGSV,3,3,09,20,00,000,42,7*4E
$GAGSV,1,1,02,27,60,014,41,20,00,000,06,1*70
$GBGSV,3,1,10,23,59,348,53,43,41,120,30,32,39,267,42,25,36,063,48,1*76
$GBGSV,3,2,10,11,35,087,34,41,28,201,28,34,27,063,45,37,24,288,39,1*72
$GBGSV,3,3,10,28,12,178,,20,11,318,,1*78
$GBGSV,2,1,07,23,59,348,45,43,41,120,28,32,39,267,19,25,36,063,42,5*7F
$GBGSV,2,2,07,41,28,201,19,34,27,063,38,37,24,288,33,5*4D
$GNGLL,3010.4623063,N,09630.6269499,W,200034.000,A,D*52
$GNRMC,200034.000,A,3010.4623063,N,09630.6269499,W,000.1,000.0,301223,,,F,V*1D
$GNVTG,000.0,T,,M,000.1,N,000.1,K,D*16
$GNZDA,200034.000,30,12,2023,00,00*4E
$PSTI,030,200034.000,A,3010.4623063,N,09630.6269499,W,108.046,0.01,-0.04,0.01,301223,F,1.000,1.000*20
$PSTI,032,200034.000,301223,A,F,-3.745,-0.405,5.988,7.074,263.83,7.26,,,,*1D
$PSTI,033,200034.000,301223,2,R,0,G,0,,0,,C,0,,0,,E,0,,0,,R,,,,,I,0,,,*22
$PSTI,033,200034.000,301223,2,B,0,G,0,,0,,C,0,,0,,E,0,,0,,R,,,,,I,0,,,*32
$GPGGA,200035.000,3010.4622897,N,09630.6269258,W,5,15,0.7,108.049,M,-24.900,M,1.000,0000*4A
$GNGSA,A,3,04,07,08,09,14,30,,,,,,,1.6,0.7,1.4,1*30
$GNGSA,A,3,27,,,,,,,,,,,,1.6,0.7,1.4,3*33
$GNGSA,A,3,11,23,25,32,34,37,41,43,,,,,1.6,0.7,1.4,4*37
$GNGSA,A,3,,,,,,,,,,,,,1.6,0.7,1.4,6*33
$GNGLL,3010.4622897,N,09630.6269258,W,200035.000,A,D*5A
$GNRMC,200035.000,A,3010.4622897,N,09630.6269258,W,000.1,000.0,301223,,,F,V*15
$GNVTG,000.0,T,,M,000.1,N,000.2,K,D*15
$GNZDA,200035.000,30,12,2023,00,00*4F
$PSTI,030,200035.000,A,3010.4622897,N,09630.6269258,W,108.049,0.01,-0.05,0.01,301223,F,1.000,1.000*26
$PSTI,032,200035.000,301223,A,F,-3.706,-0.436,5.991,7.058,263.30,6.39,,,,*1A
$PSTI,033,200035.000,301223,2,R,0,G,0,,0,,C,0,,0,,E,0,,0,,R,,,,,I,0,,,*23
$PSTI,033,200035.000,301223,2,B,0,G,0,,0,,C,0,,0,,E,0,,0,,R,,,,,I,0,,,*33
$GPGGA,200036.000,3010.4622636,N,09630.6268943,W,5,15,0.7,108.074,M,-24.900,M,1.000,0000*42
$GNGSA,A,3,04,07,08,09,14,30,,,,,,,1.6,0.7,1.4,1*30
$GNGSA,A,3,27,,,,,,,,,,,,1.6,0.7,1.4,3*33
$GNGSA,A,3,11,23,25,32,34,37,41,43,,,,,1.6,0.7,1.4,4*37
$GNGSA,A,3,,,,,,,,,,,,,1.6,0.7,1.4,6*33
$GNGLL,3010.4622636,N,09630.6268943,W,200036.000,A,D*5C
$GNRMC,200036.000,A,3010.4622636,N,09630.6268943,W,000.1,000.0,301223,,,F,V*13
$GNVTG,000.0,T,,M,000.1,N,000.2,K,D*15
$GNZDA,200036.000,30,12,2023,00,00*4C
$PSTI,030,200036.000,A,3010.4622636,N,09630.6268943,W,108.074,0.00,-0.04,0.01,301223,F,1.000,1.000*2E
$PSTI,032,200036.000,301223,A,F,-3.656,-0.484,6.016,7.056,262.46,6.29,,,,*1E
$PSTI,033,200036.000,301223,2,R,0,G,0,,0,,C,0,,0,,E,0,,0,,R,,,,,I,0,,,*20
$PSTI,033,200036.000,301223,2,B,0,G,0,,0,,C,0,,0,,E,0,,0,,R,,,,,I,0,,,*30
$GPGGA,200037.000,3010.4622181,N,09630.6268613,W,5,15,0.7,108.101,M,-24.900,M,1.000,0000*41
$GNGSA,A,3,04,07,08,09,14,30,,,,,,,1.6,0.7,1.4,1*30
$GNGSA,A,3,27,,,,,,,,,,,,1.6,0.7,1.4,3*33
$GNGSA,A,3,11,23,25,32,34,37,41,43,,,,,1.6,0.7,1.4,4*37
$GNGSA,A,3,,,,,,,,,,,,,1.6,0.7,1.4,6*33
$GPGSV,3,1,10,09,69,222,46,08,65,098,46,07,49,328,45,04,42,164,35,1*6C
$GPGSV,3,2,10,27,33,050,,30,22,306,38,14,20,252,40,21,11,131,,1*6F
$GPGSV,3,3,10,16,10,051,,02,09,142,,1*6B
$GPGSV,2,1,05,09,69,222,42,08,65,098,40,04,42,164,22,30,22,306,35,8*66
$GPGSV,2,2,05,14,20,252,16,8*5D
$GAGSV,3,1,09,27,60,014,49,21,47,269,,19,36,313,,07,35,162,,7*76
$GAGSV,3,2,09,30,15,052,,15,10,102,,13,04,150,,34,03,055,,7*7B
$GAGSV,3,3,09,20,00,000,42,7*4E
$GAGSV,1,1,02,27,60,014,41,20,00,000,12,1*75
$GBGSV,3,1,10,23,59,350,53,43,41,120,29,32,39,267,42,25,36,063,48,1*77
$GBGSV,3,2,10,11,35,087,34,41,28,201,29,34,27,063,45,37,24,288,39,1*73
$GBGSV,3,3,10,28,12,178,,20,11,318,,1*78
$GBGSV,2,1,07,23,59,350,45,43,41,120,28,32,39,267,18,25,36,063,42,5*77
$GBGSV,2,2,07,41,28,201,19,34,27,063,39,37,24,288,33,5*4C
$GNGLL,3010.4622181,N,09630.6268613,W,200037.000,A,D*5C
$GNRMC,200037.000,A,3010.4622181,N,09630.6268613,W,000.1,000.0,301223,,,F,V*13
$GNVTG,000.0,T,,M,000.1,N,000.2,K,D*15
$GNZDA,200037.000,30,12,2023,00,00*4D
$PSTI,030,200037.000,A,3010.4622181,N,09630.6268613,W,108.101,0.01,-0.04,0.01,301223,F,1.000,1.000*2C
$PSTI,032,200037.000,301223,A,F,-3.603,-0.568,6.043,7.058,261.04,7.27,,,,*18
$PSTI,033,200037.000,301223,2,R,0,G,0,,0,,C,0,,0,,E,0,,0,,R,,,,,I,0,,,*21
$PSTI,033,200037.000,301223,2,B,0,G,0,,0,,C,0,,0,,E,0,,0,,R,,,,,I,0,,,*31
$GPGGA,200038.000,3010.4622046,N,09630.6268200,W,5,15,0.7,108.072,M,-24.900,M,1.000,0000*47
$GNGSA,A,3,04,07,08,09,14,30,,,,,,,1.6,0.7,1.4,1*30
$GNGSA,A,3,27,,,,,,,,,,,,1.6,0.7,1.4,3*33
$GNGSA,A,3,11,23,25,32,34,37,41,43,,,,,1.6,0.7,1.4,4*37
$GNGSA,A,3,,,,,,,,,,,,,1.6,0.7,1.4,6*33
$GNGLL,3010.4622046,N,09630.6268200,W,200038.000,A,D*5F
$GNRMC,200038.000,A,3010.4622046,N,09630.6268200,W,000.1,000.0,301223,,,F,V*10
$GNVTG,000.0,T,,M,000.1,N,000.1,K,D*16
$GNZDA,200038.000,30,12,2023,00,00*42
$PSTI,030,200038.000,A,3010.4622046,N,09630.6268200,W,108.072,0.01,-0.04,0.01,301223,F,1.000,1.000*2A
$PSTI,032,200038.000,301223,A,F,-3.536,-0.593,6.014,7.002,260.48,6.44,,,,*16
$PSTI,033,200038.000,301223,2,R,0,G,0,,0,,C,0,,0,,E,0,,0,,R,,,,,I,0,,,*2E
$PSTI,033,200038.000,301223,2,B,0,G,0,,0,,C,0,,0,,E,0,,0,,R,,,,,I,0,,,*3E
$GPGGA,200039.000,3010.4621771,N,09630.6267940,W,5,15,0.7,108.127,M,-24.900,M,1.000,0000*47
$GNGSA,A,3,04,07,08,09,14,30,,,,,,,1.6,0.7,1.4,1*30
$GNGSA,A,3,27,,,,,,,,,,,,1.6,0.7,1.4,3*33
$GNGSA,A,3,11,23,25,32,34,37,41,43,,,,,1.6,0.7,1.4,4*37
$GNGSA,A,3,,,,,,,,,,,,,1.6,0.7,1.4,6*33
$GNGLL,3010.4621771,N,09630.6267940,W,200039.000,A,D*5E
$GNRMC,200039.000,A,3010.4621771,N,09630.6267940,W,000.1,000.0,301223,,,F,V*11
$GNVTG,000.0,T,,M,000.1,N,000.1,K,D*16
$GNZDA,200039.000,30,12,2023,00,00*43
