$GPGGA,195757.000,3010.4647173,N,09630.6244159,W,5,16,0.7,111.692,M,-24.900,M,1.000,0000*40
$GNGSA,A,3,04,07,08,09,14,30,,,,,,,1.6,0.7,1.4,1*30
$GNGSA,A,3,19,27,,,,,,,,,,,1.6,0.7,1.4,3*3B
$GNGSA,A,3,11,23,25,32,34,37,41,43,,,,,1.6,0.7,1.4,4*37
$GNGSA,A,3,,,,,,,,,,,,,1.6,0.7,1.4,6*33
$GNGLL,3010.4647173,N,09630.6244159,W,195757.000,A,D*5B
$GNRMC,195757.000,A,3010.4647173,N,09630.6244159,W,000.1,000.0,301223,,,F,V*14
$GNVTG,000.0,T,,M,000.1,N,000.2,K,D*15
$GNZDA,195757.000,30,12,2023,00,00*43
$PSTI,030,195757.000,A,3010.4647173,N,09630.6244159,W,111.692,0.01,-0.05,0.01,301223,F,1.000,1.000*2F
$PSTI,032,195757.000,301223,A,F,0.323,4.050,9.634,10.456,4.56,4.52,,,,*2A
$PSTI,033,195757.000,301223,2,R,0,G,0,,0,,C,0,,0,,E,0,,0,,R,,,,,I,0,,,*2F
$PSTI,033,195757.000,301223,2,B,0,G,0,,0,,C,0,,0,,E,0,,0,,R,,,,,I,0,,,*3F
$GPGGA,195758.000,3010.4647059,N,09630.6243957,W,5,16,0.7,111.734,M,-24.900,M,1.000,0000*4A
$GNGSA,A,3,04,07,08,09,14,30,,,,,,,1.6,0.7,1.4,1*30
$GNGSA,A,3,19,27,,,,,,,,,,,1.6,0.7,1.4,3*3B
$GNGSA,A,3,11,23,25,32,34,37,41,43,,,,,1.6,0.7,1.4,4*37
$GNGSA,A,3,,,,,,,,,,,,,1.6,0.7,1.4,6*33
$GPGSV,3,1,10,09,70,226,49,08,65,102,44,07,48,326,44,04,43,163,26,1*65
$GPGSV,3,2,10,27,34,051,,30,22,305,40,14,19,251,38,16,11,050,,1*61
$GPGSV,3,3,10,21,11,133,,02,08,143,,1*6B
$GPGSV,2,1,05,09,70,226,44,08,65,102,38,04,43,163,28,30,22,305,38,8*63
$GPGSV,2,2,05,14,19,251,21,8*50
$GAGSV,3,1,09,27,61,012,50,21,47,268,,07,36,162,,19,36,313,23,7*7A
$GAGSV,3,2,09,30,16,051,,15,10,102,,13,03,150,,34,03,056,,7*7F
$GAGSV,3,3,09,20,00,000,42,7*4E
$GAGSV,1,1,03,27,61,012,43,19,36,313,13,20,00,000,13,1*4E
$GBGSV,3,1,10,23,59,347,52,43,40,120,23,32,39,268,34,25,36,062,49,1*75
$GBGSV,3,2,10,11,35,089,34,41,28,202,30,34,27,064,46,37,23,288,33,1*7F
$GBGSV,3,3,10,28,11,178,,20,10,319,,1*7B
$GBGSV,2,1,07,23,59,347,44,43,40,120,28,32,39,268,26,25,36,062,42,5*72
$GBGSV,2,2,07,41,28,202,14,34,27,064,38,37,23,288,32,5*42
$GNGLL,3010.4647059,N,09630.6243957,W,195758.000,A,D*5C
$GNRMC,195758.000,A,3010.4647059,N,09630.6243957,W,000.1,000.0,301223,,,F,V*13
$GNVTG,000.0,T,,M,000.1,N,000.1,K,D*16
$GNZDA,195758.000,30,12,2023,00,00*4C
$PSTI,030,195758.000,A,3010.4647059,N,09630.6243957,W,111.734,0.01,-0.04,0.01,301223,F,1.000,1.000*24
$PSTI,032,195758.000,301223,A,F,0.355,4.029,9.676,10.487,5.04,5.37,,,,*24
$PSTI,033,195758.000,301223,2,R,0,G,0,,0,,C,0,,0,,E,0,,0,,R,,,,,I,0,,,*20
$PSTI,033,195758.000,301223,2,B,0,G,0,,0,,C,0,,0,,E,0,,0,,R,,,,,I,0,,,*30
$GPGGA,195759.000,3010.4647271,N,09630.6243941,W,5,16,0.7,111.844,M,-24.900,M,1.000,0000*4C
$GNGSA,A,3,04,07,08,09,14,30,,,,,,,1.6,0.7,1.4,1*30
$GNGSA,A,3,19,27,,,,,,,,,,,1.6,0.7,1.4,3*3B
$GNGSA,A,3,11,23,25,32,34,37,41,43,,,,,1.6,0.7,1.4,4*37
$GNGSA,A,3,,,,,,,,,,,,,1.6,0.7,1.4,6*33
$GNGLL,3010.4647271,N,09630.6243941,W,195759.000,A,D*52
$GNRMC,195759.000,A,3010.4647271,N,09630.6243941,W,000.1,000.0,301223,,,F,V*1D
$GNVTG,000.0,T,,M,000.1,N,000.1,K,D*16
$GNZDA,195759.000,30,12,2023,00,00*4D
$PSTI,030,195759.000,A,3010.4647271,N,09630.6243941,W,111.844,0.01,-0.04,0.01,301223,F,1.000,1.000*22
$PSTI,032,195759.000,301223,A,F,0.358,4.068,9.786,10.604,5.03,4.55,,,,*28
$PSTI,033,195759.000,301223,2,R,0,G,0,,0,,C,0,,0,,E,0,,0,,R,,,,,I,0,,,*21
$PSTI,033,195759.000,301223,2,B,0,G,0,,0,,C,0,,0,,E,0,,0,,R,,,,,I,0,,,*31
$GPGGA,195800.000,3010.4647631,N,09630.6243457,W,5,16,0.7,112.000,M,-24.900,M,1.000,0000*4E
$GNGSA,A,3,04,07,08,09,14,30,,,,,,,1.6,0.7,1.4,1*30
$GNGSA,A,3,19,27,,,,,,,,,,,1.6,0.7,1.4,3*3B
$GNGSA,A,3,11,23,25,32,34,37,41,43,,,,,1.6,0.7,1.4,4*37
$GNGSA,A,3,,,,,,,,,,,,,1.6,0.7,1.4,6*33
$GNGLL,3010.4647631,N,09630.6243457,W,195800.000,A,D*5B
$GNRMC,195800.000,A,3010.4647631,N,09630.6243457,W,000.1,000.0,301223,,,F,V*14
$GNVTG,000.0,T,,M,000.1,N,000.2,K,D*15
$GNZDA,195800.000,30,12,2023,00,00*4E
$PSTI,030,195800.000,A,3010.4647631,N,09630.6243457,W,112.000,0.01,-0.06,0.01,301223,F,1.000,1.000*22
$PSTI,032,195800.000,301223,A,F,0.436,4.134,9.942,10.776,6.02,4.38,,,,*27
$PSTI,033,195800.000,301223,2,R,0,G,0,,0,,C,0,,0,,E,0,,0,,R,,,,,I,0,,,*22
$PSTI,033,195800.000,301223,2,B,0,G,0,,0,,C,0,,0,,E,0,,0,,R,,,,,I,0,,,*32
$GPGGA,195801.000,3010.4647913,N,09630.6242964,W,5,16,0.7,112.161,M,-24.900,M,1.000,0000*4A
$GNGSA,A,3,04,07,08,09,14,30,,,,,,,1.6,0.7,1.4,1*30
$GNGSA,A,3,19,27,,,,,,,,,,,1.6,0.7,1.4,3*3B
$GNGSA,A,3,11,23,25,32,34,37,41,43,,,,,1.6,0.7,1.4,4*37
$GNGSA,A,3,,,,,,,,,,,,,1.6,0.7,1.4,6*33
$GPGSV,3,1,10,09,70,226,49,08,65,102,44,07,48,326,44,04,43,163,26,1*65
$GPGSV,3,2,10,27,34,051,,30,22,305,40,14,19,251,38,16,11,050,,1*61
$GPGSV,3,3,10,21,11,133,,02,08,143,,1*6B
$GPGSV,2,1,05,09,70,226,44,08,65,102,38,04,43,163,28,30,22,305,38,8*63
$GPGSV,2,2,05,14,19,251,21,8*50
$GAGSV,3,1,09,27,61,012,50,21,47,268,,07,36,162,,19,36,313,25,7*7C
$GAGSV,3,2,09,30,16,051,,15,10,102,,13,03,150,,34,03,056,,7*7F
$GAGSV,3,3,09,20,00,000,42,7*4E
$GAGSV,1,1,02,27,61,012,43,19,36,313,11,1*7D
$GBGSV,3,1,10,23,59,347,52,43,40,120,22,32,39,268,34,25,36,062,48,1*75
$GBGSV,3,2,10,11,35,089,34,41,28,202,31,34,27,064,46,37,23,288,33,1*7E
$GBGSV,3,3,10,28,11,178,,20,10,319,,1*7B
$GBGSV,2,1,07,23,59,347,44,43,40,120,28,32,39,268,26,25,36,062,42,5*72
$GBGSV,2,2,07,41,28,202,13,34,27,064,38,37,23,288,32,5*45
$GNGLL,3010.4647913,N,09630.6242964,W,195801.000,A,D*59
$GNRMC,195801.000,A,3010.4647913,N,09630.6242964,W,000.1,000.0,301223,,,F,V*16
$GNVTG,000.0,T,,M,000.1,N,000.1,K,D*16
$GNZDA,195801.000,30,12,2023,00,00*4F
$PSTI,030,195801.000,A,3010.4647913,N,09630.6242964,W,112.161,0.01,-0.03,0.01,301223,F,1.000,1.000*23
$PSTI,032,195801.000,301223,A,F,0.515,4.186,10.103,10.948,7.01,4.90,,,,*19
$PSTI,033,195801.000,301223,2,R,0,G,0,,0,,C,0,,0,,E,0,,0,,R,,,,,I,0,,,*23
$PSTI,033,195801.000,301223,2,B,0,G,0,,0,,C,0,,0,,E,0,,0,,R,,,,,I,0,,,*33
$GPGGA,195802.000,3010.4648526,N,09630.6242635,W,5,16,0.7,112.388,M,-24.900,M,1.000,0000*42
$GNGSA,A,3,04,07,08,09,14,30,,,,,,,1.6,0.7,1.4,1*30
$GNGSA,A,3,19,27,,,,,,,,,,,1.6,0.7,1.4,3*3B
$GNGSA,A,3,11,23,25,32,34,37,41,43,,,,,1.6,0.7,1.4,4*37
$GNGSA,A,3,,,,,,,,,,,,,1.6,0.7,1.4,6*33
$GNGLL,3010.4648526,N,09630.6242635,W,195802.000,A,D*54
$GNRMC,195802.000,A,3010.4648526,N,09630.6242635,W,000.1,000.0,301223,,,F,V*1B
$GNVTG,000.0,T,,M,000.1,N,000.2,K,D*15
$GNZDA,195802.000,30,12,2023,00,00*4C
$PSTI,030,195802.000,A,3010.4648526,N,09630.6242635,W,112.388,0.01,-0.04,0.01,301223,F,1.000,1.000*2C
$PSTI,032,195802.000,301223,A,F,0.568,4.300,10.330,11.203,7.52,4.25,,,,*13
$PSTI,033,195802.000,301223,2,R,0,G,0,,0,,C,0,,0,,E,0,,0,,R,,,,,I,0,,,*20
$PSTI,033,195802.000,301223,2,B,0,G,0,,0,,C,0,,0,,E,0,,0,,R,,,,,I,0,,,*30
$GPGGA,195803.000,3010.4648656,N,09630.6242415,W,5,16,0.7,112.499,M,-24.900,M,1.000,0000*40
$GNGSA,A,3,04,07,08,09,14,30,,,,,,,1.6,0.7,1.4,1*30
$GNGSA,A,3,19,27,,,,,,,,,,,1.6,0.7,1.4,3*3B
$GNGSA,A,3,11,23,25,32,34,37,41,43,,,,,1.6,0.7,1.4,4*37
$GNGSA,A,3,,,,,,,,,,,,,1.6,0.7,1.4,6*33
$GNGLL,3010.4648656,N,09630.6242415,W,195803.000,A,D*51
$GNRMC,195803.000,A,3010.4648656,N,09630.6242415,W,000.1,000.0,301223,,,F,V*1E
$GNVTG,000.0,T,,M,000.1,N,000.2,K,D*15
$GNZDA,195803.000,30,12,2023,00,00*4D
$PSTI,030,195803.000,A,3010.4648656,N,09630.6242415,W,112.499,0.01,-0.06,0.00,301223,F,1.000,1.000*2D
$PSTI,032,195803.000,301223,A,F,0.603,4.324,10.441,11.317,7.94,4.13,,,,*10
$PSTI,033,195803.000,301223,2,R,0,G,0,,0,,C,0,,0,,E,0,,0,,R,,,,,I,0,,,*21
$PSTI,033,195803.000,301223,2,B,0,G,0,,0,,C,0,,0,,E,0,,0,,R,,,,,I,0,,,*31
$GPGGA,195804.000,3010.4648449,N,09630.6242178,W,5,16,0.7,112.606,M,-24.900,M,1.000,0000*41
$GNGSA,A,3,04,07,08,09,14,30,,,,,,,1.6,0.7,1.4,1*30
$GNGSA,A,3,19,27,,,,,,,,,,,1.6,0.7,1.4,3*3B
$GNGSA,A,3,11,23,25,32,34,37,41,43,,,,,1.6,0.7,1.4,4*37
$GNGSA,A,3,,,,,,,,,,,,,1.6,0.7,1.4,6*33
$GPGSV,3,1,10,09,70,226,48,08,65,102,44,07,48,326,44,04,43,163,26,1*64
$GPGSV,3,2,10,27,34,051,,30,22,305,40,14,19,251,38,16,11,050,,1*61
$GPGSV,3,3,10,21,11,133,,02,08,143,,1*6B
$GPGSV,2,1,05,09,70,226,44,08,65,102,38,04,43,163,28,30,22,305,39,8*62
$GPGSV,2,2,05,14,19,251,21,8*50
$GAGSV,3,1,09,27,61,013,50,21,47,268,,07,36,162,,19,36,313,22,7*7A
$GAGSV,3,2,09,30,15,051,,15,10,102,,13,03,150,,34,03,056,,7*7C
$GAGSV,3,3,09,20,00,000,42,7*4E
$GAGSV,1,1,03,27,61,013,43,19,36,313,10,20,00,000,11,1*4E
$GBGSV,3,1,10,23,59,347,52,43,40,120,24,32,39,268,34,25,36,062,48,1*73
$GBGSV,3,2,10,11,35,089,35,41,28,202,31,34,27,064,46,37,23,288,33,1*7F
$GBGSV,3,3,10,28,11,178,,20,10,319,,1*7B
$GBGSV,2,1,07,23,59,347,44,43,40,120,28,32,39,268,26,25,36,062,42,5*72
$GBGSV,2,2,07,41,28,202,15,34,27,064,38,37,23,288,32,5*43
$GNGLL,3010.4648449,N,09630.6242178,W,195804.000,A,D*54
$GNRMC,195804.000,A,3010.4648449,N,09630.6242178,W,000.1,000.0,301223,,,F,V*1B
$GNVTG,000.0,T,,M,000.1,N,000.2,K,D*15
$GNZDA,195804.000,30,12,2023,00,00*4A
$PSTI,030,195804.000,A,3010.4648449,N,09630.6242178,W,112.606,0.01,-0.05,0.01,301223,F,1.000,1.000*2E
$PSTI,032,195804.000,301223,A,F,0.641,4.285,10.548,11.404,8.51,4.67,,,,*13
$PSTI,033,195804.000,301223,2,R,0,G,0,,0,,C,0,,0,,E,0,,0,,R,,,,,I,0,,,*26
$PSTI,033,195804.000,301223,2,B,0,G,0,,0,,C,0,,0,,E,0,,0,,R,,,,,I,0,,,*36
$GPGGA,195805.000,3010.4648524,N,09630.6242132,W,5,15,0.7,112.724,M,-24.900,M,1.000,0000*46
$GNGSA,A,3,04,07,08,09,14,30,,,,,,,1.6,0.7,1.4,1*30
$GNGSA,A,3,27,,,,,,,,,,,,1.6,0.7,1.4,3*33
$GNGSA,A,3,11,23,25,32,34,37,41,43,,,,,1.6,0.7,1.4,4*37
$GNGSA,A,3,,,,,,,,,,,,,1.6,0.7,1.4,6*33
$G$GPGGA,195812.000,3010.4645847,N,09630.6241720,W,5,15,0.7,113.156,M,-24.900,M,1.000,0000*41
$GNGSA,A,3,04,07,08,09,14,30,,,,,,,1.6,0.7,1.4,1*30
$GNGSA,A,3,27,,,,,,,,,,,,1.6,0.7,1.4,3*33
$GNGSA,A,3,11,23,25,32,34,37,41,43,,,,,1.6,0.7,1.4,4*37
$GNGSA,A,3,,,,,,,,,,,,,1.6,0.7,1.4,6*33
$GNGLL,3010.4645847,N,09630.6241720,W,195812.000,A,D*54
$GNRMC,195812.000,A,3010.4645847,N,09630.6241720,W,000.1,000.0,301223,,,F,V*1B
$GNVTG,000.0,T,,M,000.1,N,000.2,K,D*15
$GNZDA,195812.000,30,12,2023,00,00*4D
$PSTI,030,195812.000,A,3010.4645847,N,09630.6241720,W,113.156,0.02,-0.04,0.01,301223,F,1.000,1.000*2F
$PSTI,032,195812.000,301223,A,F,0.714,3.805,11.098,11.754,10.64,3.89,,,,*27
$PSTI,033,195812.000,301223,2,R,0,G,0,,0,,C,0,,0,,E,0,,0,,R,,,,,I,0,,,*21
$PSTI,033,195812.000,301223,2,B,0,G,0,,0,,C,0,,0,,E,0,,0,,R,,,,,I,0,,,*31
$GPGGA,195813.000,3010.4645164,N,09630.6241726,W,5,15,0.7,113.221,M,-24.900,M,1.000,0000*4D
$GNGSA,A,3,04,07,08,09,14,30,,,,,,,1.6,0.7,1.4,1*30
$GNGSA,A,3,27,,,,,,,,,,,,1.6,0.7,1.4,3*33
$GNGSA,A,3,11,23,25,32,34,37,41,43,,,,,1.6,0.7,1.4,4*37
$GNGSA,A,3,,,,,,,,,,,,,1.6,0.7,1.4,6*33
$GPGSV,3,1,10,09,70,226,48,08,65,102,45,07,48,326,44,04,42,164,31,1*65
$GPGSV,3,2,10,27,34,051,,30,22,305,39,14,19,251,38,21,11,133,,1*6F
$GPGSV,3,3,10,16,11,050,,02,08,143,,1*6B
$GPGSV,2,1,05,09,70,226,44,08,65,102,38,04,42,164,28,30,22,305,38,8*65
$GPGSV,2,2,05,14,19,251,21,8*50
$GAGSV,3,1,09,27,61,013,50,21,47,268,,19,36,313,,07,36,162,,7*7A
$GAGSV,3,2,09,30,15,051,,15,10,102,,34,03,056,,13,03,150,,7*7C
$GAGSV,3,3,09,20,00,000,42,7*4E
$GAGSV,1,1,02,27,61,013,43,20,00,000,11,1*72
$GBGSV,3,1,10,23,59,347,52,43,40,120,28,32,39,268,34,25,36,062,48,1*7F
$GBGSV,3,2,10,11,35,089,35,41,28,202,31,34,27,064,47,37,23,288,35,1*78
$GBGSV,3,3,10,28,11,178,,20,10,319,,1*7B
$GBGSV,2,1,07,23,59,347,44,43,40,120,28,32,39,268,26,25,36,062,42,5*72
$GBGSV,2,2,07,41,28,202,14,34,27,064,38,37,23,288,32,5*42
$GNGLL,3010.4645164,N,09630.6241726,W,195813.000,A,D*5B
$GNRMC,195813.000,A,3010.4645164,N,09630.6241726,W,000.1,000.0,301223,,,F,V*14
$GNVTG,000.0,T,,M,000.1,N,000.1,K,D*16
$GNZDA,195813.000,30,12,2023,00,00*4C
$PSTI,030,195813.000,A,3010.4645164,N,09630.6241726,W,113.221,0.01,-0.04,0.01,301223,F,1.000,1.000*20
$PSTI,032,195813.000,301223,A,F,0.714,3.678,11.163,11.775,10.98,4.46,,,,*23
$PSTI,033,195813.000,301223,2,R,0,G,0,,0,,C,0,,0,,E,0,,0,,R,,,,,I,0,,,*20
$PSTI,033,195813.000,301223,2,B,0,G,0,,0,,C,0,,0,,E,0,,0,,R,,,,,I,0,,,*30
$GPGGA,195814.000,3010.4644859,N,09630.6241820,W,5,15,0.7,113.248,M,-24.900,M,1.000,0000*4A
$GNGSA,A,3,04,07,08,09,14,30,,,,,,,1.6,0.7,1.4,1*30
$GNGSA,A,3,27,,,,,,,,,,,,1.6,0.7,1.4,3*33
$GNGSA,A,3,11,23,25,32,34,37,41,43,,,,,1.6,0.7,1.4,4*37
$GNGSA,A,3,,,,,,,,,,,,,1.6,0.7,1.4,6*33
$GNGLL,3010.4644859,N,09630.6241820,W,195814.000,A,D*53
$GNRMC,195814.000,A,3010.4644859,N,09630.6241820,W,000.1,000.0,301223,,,F,V*1C
$GNVTG,000.0,T,,M,000.1,N,000.2,K,D*15
$GNZDA,195814.000,30,12,2023,00,00*4B
$PSTI,030,195814.000,A,3010.4644859,N,09630.6241820,W,113.248,0.00,-0.04,0.01,301223,F,1.000,1.000*26
$PSTI,032,195814.000,301223,A,F,0.698,3.622,11.190,11.782,10.91,3.93,,,,*2C
$PSTI,033,195814.000,301223,2,R,0,G,0,,0,,C,0,,0,,E,0,,0,,R,,,,,I,0,,,*27
$PSTI,033,195814.000,301223,2,B,0,G,0,,0,,C,0,,0,,E,0,,0,,R,,,,,I,0,,,*37
$GPGGA,195815.000,3010.4644340,N,09630.6241876,W,5,15,0.7,113.298,M,-24.900,M,1.000,0000*46
$GNGSA,A,3,04,07,08,09,14,30,,,,,,,1.6,0.7,1.4,1*30
$GNGSA,A,3,27,,,,,,,,,,,,1.6,0.7,1.4,3*33
$GNGSA,A,3,11,23,25,32,34,37,41,43,,,,,1.6,0.7,1.4,4*37
$GNGSA,A,3,,,,,,,,,,,,,1.6,0.7,1.4,6*33
$GNGLL,3010.4644340,N,09630.6241876,W,195815.000,A,D*52
$GNRMC,195815.000,A,3010.4644340,N,09630.6241876,W,000.1,000.0,301223,,,F,V*1D
$GNVTG,000.0,T,,M,000.1,N,000.1,K,D*16
$GNZDA,195815.000,30,12,2023,00,00*4A
$PSTI,030,195815.000,A,3010.4644340,N,09630.6241876,W,113.298,0.01,-0.04,0.02,301223,F,1.000,1.000*28
$PSTI,032,195815.000,301223,A,F,0.689,3.526,11.240,11.800,11.06,3.86,,,,*2A
$PSTI,033,195815.000,301223,2,R,0,G,0,,0,,C,0,,0,,E,0,,0,,R,,,,,I,0,,,*26
$PSTI,033,195815.000,301223,2,B,0,G,0,,0,,C,0,,0,,E,0,,0,,R,,,,,I,0,,,*36
$GPGGA,195816.000,3010.4643657,N,09630.6241910,W,5,15,0.7,113.346,M,-24.900,M,1.000,0000*42
$GNGSA,A,3,04,07,08,09,14,30,,,,,,,1.6,0.7,1.4,1*30
$GNGSA,A,3,27,,,,,,,,,,,,1.6,0.7,1.4,3*33
$GNGSA,A,3,11,23,25,32,34,37,41,43,,,,,1.6,0.7,1.4,4*37
$GNGSA,A,3,,,,,,,,,,,,,1.6,0.7,1.4,6*33
$GPGSV,3,1,10,09,70,224,48,08,65,100,45,07,49,327,44,04,42,164,32,1*66
$GPGSV,3,2,10,27,34,051,,30,22,305,39,14,19,251,38,21,11,133,,1*6F
$GPGSV,3,3,10,16,11,050,,02,08,143,,1*6B
$GPGSV,2,1,05,09,70,224,44,08,65,100,38,04,42,164,28,30,22,305,39,8*64
$GPGSV,2,2,05,14,19,251,20,8*51
$GAGSV,3,1,09,27,61,013,50,21,47,268,,19,36,313,,07,36,162,,7*7A
$GAGSV,3,2,09,30,15,051,,15,10,102,,34,03,056,,13,03,150,,7*7C
$GAGSV,3,3,09,20,00,000,42,7*4E
$GAGSV,1,1,02,27,61,013,43,20,00,000,09,1*7B
$GBGSV,3,1,10,23,59,347,52,43,40,120,29,32,39,268,34,25,36,062,48,1*7E
$GBGSV,3,2,10,11,35,089,35,41,28,202,31,34,27,064,47,37,23,288,35,1*78
$GBGSV,3,3,10,28,11,178,,20,10,319,,1*7B
$GBGSV,2,1,07,23,59,347,44,43,40,120,29,32,39,268,27,25,36,062,42,5*72
$GBGSV,2,2,07,41,28,202,12,34,27,064,38,37,23,288,31,5*47
$GNGLL,3010.4643657,N,09630.6241910,W,195816.000,A,D*54
$GNRMC,195816.000,A,3010.4643657,N,09630.6241910,W,000.1,000.0,301223,,,F,V*1B
$GNVTG,000.0,T,,M,000.1,N,000.2,K,D*15
$GNZDA,195816.000,30,12,2023,00,00*49
$PSTI,030,195816.000,A,3010.4643657,N,09630.6241910,W,113.346,0.01,-0.04,0.02,301223,F,1.000,1.000*2C
$PSTI,032,195816.000,301223,A,F,0.684,3.400,11.288,11.809,11.38,4.43,,,,*2F
$PSTI,033,195816.000,301223,2,R,0,G,0,,0,,C,0,,0,,E,0,,0,,R,,,,,I,0,,,*25
$PSTI,033,195816.000,301223,2,B,0,G,0,,0,,C,0,,0,,E,0,,0,,R,,,,,I,0,,,*35
$GPGGA,195817.000,3010.4643252,N,09630.6242111,W,5,15,0.7,113.320,M,-24.900,M,1.000,0000*48
$GNGSA,A,3,04,07,08,09,14,30,,,,,,,1.6,0.7,1.4,1*30
$GNGSA,A,3,27,,,,,,,,,,,,1.6,0.7,1.4,3*33
$GNGSA,A,3,11,23,25,32,34,37,41,43,,,,,1.6,0.7,1.4,4*37
$GNGSA,A,3,,,,,,,,,,,,,1.6,0.7,1.4,6*33
$GNGLL,3010.4643252,N,09630.6242111,W,195817.000,A,D*5E
$GNRMC,195817.000,A,3010.4643252,N,09630.6242111,W,000.1,000.0,301223,,,F,V*11
$GNVTG,000.0,T,,M,000.1,N,000.2,K,D*15
$GNZDA,195817.000,30,12,2023,00,00*48
$PSTI,030,195817.000,A,3010.4643252,N,09630.6242111,W,113.320,0.01,-0.05,0.02,301223,F,1.000,1.000*27
$PSTI,032,195817.000,301223,A,F,0.652,3.325,11.262,11.761,11.09,3.92,,,,*29
$PSTI,033,195817.000,301223,2,R,0,G,0,,0,,C,0,,0,,E,0,,0,,R,,,,,I,0,,,*24
$PSTI,033,195817.000,301223,2,B,0,G,0,,0,,C,0,,0,,E,0,,0,,R,,,,,I,0,,,*34
$GPGGA,195818.000,3010.4640585,N,09630.6241085,W,5,15,0.7,112.892,M,-24.900,M,1.000,0000*45
$GNGSA,A,3,04,07,08,09,14,30,,,,,,,1.6,0.7,1.4,1*30
$GNGSA,A,3,27,,,,,,,,,,,,1.6,0.7,1.4,3*33
$GNGSA,A,3,11,23,25,32,34,37,41,43,,,,,1.6,0.7,1.4,4*37
$GNGSA,A,3,,,,,,,,,,,,,1.6,0.7,1.4,6*33
$GNGLL,3010.4640585,N,09630.6241085,W,195818.000,A,D*50
$GNRMC,195818.000,A,3010.4640585,N,09630.6241085,W,000.1,000.0,301223,,,F,V*1F
$GNVTG,000.0,T,,M,000.1,N,000.1,K,D*16
$GNZDA,195818.000,30,12,2023,00,00*47
$PSTI,030,195818.000,A,3010.4640585,N,09630.6241085,W,112.892,0.01,-0.04,0.01,301223,F,1.000,1.000*28
$PSTI,032,195818.000,301223,A,F,0.817,2.832,10.834,11.228,16.08,3.98,,,,*29
$PSTI,033,195818.000,301223,2,R,0,G,0,,0,,C,0,,0,,E,0,,0,,R,,,,,I,0,,,*2B
$PSTI,033,195818.000,301223,2,B,0,G,0,,0,,C,0,,0,,E,0,,0,,R,,,,,I,0,,,*3B
$GPGGA,195819.000,3010.4637995,N,09630.6240166,W,5,15,0.7,112.520,M,-24.900,M,1.000,0000*40
$GNGSA,A,3,04,07,08,09,14,30,,,,,,,1.6,0.7,1.4,1*30
$GNGSA,A,3,27,,,,,,,,,,,,1.6,0.7,1.4,3*33
$GNGSA,A,3,11,23,25,32,34,37,41,43,,,,,1.6,0.7,1.4,4*37
$GNGSA,A,3,,,,,,,,,,,,,1.6,0.7,1.4,6*33
$GPGSV,3,1,10,09,70,224,48,08,65,100,45,07,49,327,44,04,42,164,33,1*67
$GPGSV,3,2,10,27,34,051,,30,22,305,39,14,19,251,37,21,11,133,,1*60
$GPGSV,3,3,10,16,11,050,,02,08,143,,1*6B
$GPGSV,2,1,05,09,70,224,44,08,65,100,38,04,42,164,28,30,22,305,39,8*64
$GPGSV,2,2,05,14,19,251,20,8*51
$GAGSV,3,1,09,27,61,013,50,21,47,268,,19,36,313,,07,36,162,,7*7A
$GAGSV,3,2,09,30,15,051,,15,10,102,,34,03,056,,13,03,150,,7*7C
$GAGSV,3,3,09,20,00,000,42,7*4E
$GAGSV,1,1,02,27,61,013,43,20,00,000,15,1*76
$GBGSV,3,1,10,23,59,347,52,43,40,120,30,32,39,268,34,25,36,062,48,1*76
$GBGSV,3,2,10,11,35,089,34,41,28,202,31,34,27,064,46,37,23,288,34,1*79
$GBGSV,3,3,10,28,11,178,,20,10,319,,1*7B
$GBGSV,2,1,07,23,59,347,44,43,40,120,28,32,39,268,27,25,36,062,42,5*73
$GBGSV,2,2,07,41,28,202,12,34,27,064,38,37,23,288,32,5*44
$GNGLL,3010.4637995,N,09630.6240166,W,195819.000,A,D*51
$GNRMC,195819.000,A,3010.4637995,N,09630.6240166,W,000.1,000.0,301223,,,F,V*1E
$GNVTG,000.0,T,,M,000.1,N,000.1,K,D*16
$GNZDA,195819.000,30,12,2023,00,00*46
$PSTI,030,195819.000,A,3010.4637995,N,09630.6240166,W,112.520,0.01,-0.04,0.01,301223,F,1.000,1.000*2D
$PSTI,032,195819.000,301223,A,F,0.964,2.354,10.462,10.766,22.27,4.62,,,,*2F
$PSTI,033,195819.000,301223,2,R,0,G,0,,$GPGGA,195827.000,3010.4629632,N,09630.6238319,W,5,15,0.7,111.471,M,-24.900,M,1.000,0000*43
$GNGSA,A,3,04,07,08,09,14,30,,,,,,,1.6,0.7,1.4,1*30
$GNGSA,A,3,27,,,,,,,,,,,,1.6,0.7,1.4,3*33
$GNGSA,A,3,11,23,25,32,34,37,41,43,,,,,1.6,0.7,1.4,4*37
$GNGSA,A,3,,,,,,,,,,,,,1.6,0.7,1.4,6*33
$GNGLL,3010.4629632,N,09630.6238319,W,195827.000,A,D*54
$GNRMC,195827.000,A,3010.4629632,N,09630.6238319,W,000.1,000.0,301223,,,F,V*1B
$GNVTG,000.0,T,,M,000.1,N,000.2,K,D*15
$GNZDA,195827.000,30,12,2023,00,00*4B
$PSTI,030,195827.000,A,3010.4629632,N,09630.6238319,W,111.471,0.01,-0.04,0.01,301223,F,1.000,1.000*2E
$PSTI,032,195827.000,301223,A,F,1.260,0.809,9.413,9.531,57.31,4.36,,,,*2F
$PSTI,033,195827.000,301223,2,R,0,G,0,,0,,C,0,,0,,E,0,,0,,R,,,,,I,0,,,*27
$PSTI,033,195827.000,301223,2,B,0,G,0,,0,,C,0,,0,,E,0,,0,,R,,,,,I,0,,,*37
$GPGGA,195828.000,3010.4628748,N,09630.6238331,W,5,15,0.7,111.433,M,-24.900,M,1.000,0000*4D
$GNGSA,A,3,04,07,08,09,14,30,,,,,,,1.6,0.7,1.4,1*30
$GNGSA,A,3,27,,,,,,,,,,,,1.6,0.7,1.4,3*33
$GNGSA,A,3,11,23,25,32,34,37,41,43,,,,,1.6,0.7,1.4,4*37
$GNGSA,A,3,,,,,,,,,,,,,1.6,0.7,1.4,6*33
$GPGSV,3,1,10,09,70,224,48,08,65,100,45,07,49,327,44,04,42,164,33,1*67
$GPGSV,3,2,10,27,34,051,,30,22,305,39,14,20,252,36,21,11,132,,1*69
$GPGSV,3,3,10,16,10,051,,02,08,143,,1*6B
$GPGSV,2,1,05,09,70,224,44,08,65,100,38,04,42,164,27,30,22,305,38,8*6A
$GPGSV,2,2,05,14,20,252,19,8*52
$GAGSV,3,1,09,27,61,013,50,21,47,268,,19,36,313,,07,36,162,,7*7A
$GAGSV,3,2,09,30,15,051,,15,10,102,,34,03,056,,13,03,150,,7*7C
$GAGSV,3,3,09,20,00,000,42,7*4E
$GAGSV,1,1,02,27,61,013,43,20,00,000,08,1*7A
$GBGSV,3,1,10,23,59,347,52,43,40,120,31,32,39,268,33,25,36,062,48,1*70
$GBGSV,3,2,10,11,35,089,31,41,28,202,32,34,27,064,46,37,23,288,35,1*7E
$GBGSV,3,3,10,28,11,178,,20,10,319,,1*7B
$GBGSV,2,1,07,23,59,347,44,43,40,120,29,32,39,268,27,25,36,062,42,5*72
$GBGSV,2,2,07,41,28,202,16,34,27,064,38,37,23,288,31,5*43
$GNGLL,3010.4628748,N,09630.6238331,W,195828.000,A,D*5C
$GNRMC,195828.000,A,3010.4628748,N,09630.6238331,W,000.1,000.0,301223,,,F,V*13
$GNVTG,000.0,T,,M,000.1,N,000.2,K,D*15
$GNZDA,195828.000,30,12,2023,00,00*44
$PSTI,030,195828.000,A,3010.4628748,N,09630.6238331,W,111.433,0.01,-0.05,0.01,301223,F,1.000,1.000*21
$PSTI,032,195828.000,301223,A,F,1.259,0.645,9.375,9.481,62.85,5.00,,,,*2C
$PSTI,033,195828.000,301223,2,R,0,G,0,,0,,C,0,,0,,E,0,,0,,R,,,,,I,0,,,*28
$PSTI,033,195828.000,301223,2,B,0,G,0,,0,,C,0,,0,,E,0,,0,,R,,,,,I,0,,,*38
$GPGGA,195829.000,3010.4628235,N,09630.6238386,W,5,15,0.7,111.392,M,-24.900,M,1.000,0000*43
$GNGSA,A,3,04,07,08,09,14,30,,,,,,,1.6,0.7,1.4,1*30
$GNGSA,A,3,27,,,,,,,,,,,,1.6,0.7,1.4,3*33
$GNGSA,A,3,11,23,25,32,34,37,41,43,,,,,1.6,0.7,1.4,4*37
$GNGSA,A,3,,,,,,,,,,,,,1.6,0.7,1.4,6*33
$GNGLL,3010.4628235,N,09630.6238386,W,195829.000,A,D*5E
$GNRMC,195829.000,A,3010.4628235,N,09630.6238386,W,000.1,000.0,301223,,,F,V*11
$GNVTG,000.0,T,,M,000.1,N,000.1,K,D*16
$GNZDA,195829.000,30,12,2023,00,00*45
$PSTI,030,195829.000,A,3010.4628235,N,09630.6238386,W,111.392,0.01,-0.04,0.01,301223,F,1.000,1.000*2E
$PSTI,032,195829.000,301223,A,F,1.250,0.551,9.334,9.434,66.22,4.45,,,,*20
$PSTI,033,195829.000,301223,2,R,0,G,0,,0,,C,0,,0,,E,0,,0,,R,,,,,I,0,,,*29
$PSTI,033,195829.000,301223,2,B,0,G,0,,0,,C,0,,0,,E,0,,0,,R,,,,,I,0,,,*39
$GPGGA,195830.000,3010.4627655,N,09630.6238439,W,5,15,0.7,111.360,M,-24.900,M,1.000,0000*48
$GNGSA,A,3,04,07,08,09,14,30,,,,,,,1.6,0.7,1.4,1*30
$GNGSA,A,3,27,,,,,,,,,,,,1.6,0.7,1.4,3*33
$GNGSA,A,3,11,23,25,32,34,37,41,43,,,,,1.6,0.7,1.4,4*37
$GNGSA,A,3,,,,,,,,,,,,,1.6,0.7,1.4,6*33
$GNGLL,3010.4627655,N,09630.6238439,W,195830.000,A,D*58
$GNRMC,195830.000,A,3010.4627655,N,09630.6238439,W,000.1,000.0,301223,,,F,V*17
$GNVTG,000.0,T,,M,000.1,N,000.2,K,D*15
$GNZDA,195830.000,30,12,2023,00,00*4D
$PSTI,030,195830.000,A,3010.4627655,N,09630.6238439,W,111.360,0.01,-0.04,0.01,301223,F,1.000,1.000*25
$PSTI,032,195830.000,301223,A,F,1.241,0.443,9.302,9.395,70.34,4.37,,,,*26
$PSTI,033,195830.000,301223,2,R,0,G,0,,0,,C,0,,0,,E,0,,0,,R,,,,,I,0,,,*21
$PSTI,033,195830.000,301223,2,B,0,G,0,,0,,C,0,,0,,E,0,,0,,R,,,,,I,0,,,*31
$GPGGA,195831.000,3010.4627104,N,09630.6238630,W,5,15,0.7,111.378,M,-24.900,M,1.000,0000*48
$GNGSA,A,3,04,07,08,09,14,30,,,,,,,1.6,0.7,1.4,1*30
$GNGSA,A,3,27,,,,,,,,,,,,1.6,0.7,1.4,3*33
$GNGSA,A,3,11,23,25,32,34,37,41,43,,,,,1.6,0.7,1.4,4*37
$GNGSA,A,3,,,,,,,,,,,,,1.6,0.7,1.4,6*33
$GPGSV,3,1,10,09,70,224,48,08,65,100,45,07,49,327,43,04,42,164,33,1*60
$GPGSV,3,2,10,27,34,051,,30,22,305,38,14,20,252,36,21,11,132,,1*68
$GPGSV,3,3,10,16,10,051,,02,08,143,,1*6B
$GPGSV,2,1,05,09,70,224,43,08,65,100,38,04,42,164,28,30,22,305,38,8*62
$GPGSV,2,2,05,14,20,252,19,8*52
$GAGSV,3,1,09,27,61,013,50,21,47,268,,19,36,313,,07,36,162,,7*7A
$GAGSV,3,2,09,30,15,051,,15,10,102,,34,03,056,,13,03,150,,7*7C
$GAGSV,3,3,09,20,00,000,42,7*4E
$GAGSV,1,1,02,27,61,013,43,20,00,000,08,1*7A
$GBGSV,3,1,10,23,59,347,52,43,40,120,31,32,39,268,32,25,36,062,48,1*71
$GBGSV,3,2,10,11,35,089,31,41,28,202,32,34,27,064,47,37,23,288,35,1*7F
$GBGSV,3,3,10,28,11,178,,20,10,319,,1*7B
$GBGSV,2,1,07,23,59,347,44,43,40,120,28,32,39,268,28,25,36,062,41,5*7F
$GBGSV,2,2,07,41,28,202,17,34,27,064,38,37,23,288,31,5*42
$GNGLL,3010.4627104,N,09630.6238630,W,195831.000,A,D*51
$GNRMC,195831.000,A,3010.4627104,N,09630.6238630,W,000.1,000.0,301223,,,F,V*1E
$GNVTG,000.0,T,,M,000.1,N,000.2,K,D*15
$GNZDA,195831.000,30,12,2023,00,00*4C
$PSTI,030,195831.000,A,3010.4627104,N,09630.6238630,W,111.378,0.01,-0.04,0.01,301223,F,1.000,1.000*25
$PSTI,032,195831.000,301223,A,F,1.211,0.342,9.320,9.404,74.24,5.00,,,,*2B
$PSTI,033,195831.000,301223,2,R,0,G,0,,0,,C,0,,0,,E,0,,0,,R,,,,,I,0,,,*20
$PSTI,033,195831.000,301223,2,B,0,G,0,,0,,C,0,,0,,E,0,,0,,R,,,,,I,0,,,*30
$GPGGA,195832.000,3010.4626858,N,09630.6238726,W,5,15,0.7,111.363,M,-24.900,M,1.000,0000*46
$GNGSA,A,3,04,07,08,09,14,30,,,,,,,1.6,0.7,1.4,1*30
$GNGSA,A,3,27,,,,,,,,,,,,1.6,0.7,1.4,3*33
$GNGSA,A,3,11,23,25,32,34,37,41,43,,,,,1.6,0.7,1.4,4*37
$GNGSA,A,3,,,,,,,,,,,,,1.6,0.7,1.4,6*33
$GNGLL,3010.4626858,N,09630.6238726,W,195832.000,A,D*55
$GNRMC,195832.000,A,3010.4626858,N,09630.6238726,W,000.1,000.0,301223,,,F,V*1A
$GNVTG,000.0,T,,M,000.1,N,000.2,K,D*15
$GNZDA,195832.000,30,12,2023,00,00*4F
$PSTI,030,195832.000,A,3010.4626858,N,09630.6238726,W,111.363,0.01,-0.05,0.01,301223,F,1.000,1.000*2A
$PSTI,032,195832.000,301223,A,F,1.195,0.296,9.305,9.386,76.08,4.43,,,,*2F
$PSTI,033,195832.000,301223,2,R,0,G,0,,0,,C,0,,0,,E,0,,0,,R,,,,,I,0,,,*23
$PSTI,033,195832.000,301223,2,B,0,G,0,,0,,C,0,,0,,E,0,,0,,R,,,,,I,0,,,*33
$GPGGA,195833.000,3010.4626600,N,09630.6238966,W,5,15,0.7,111.423,M,-24.900,M,1.000,0000*4D
$GNGSA,A,3,04,07,08,09,14,30,,,,,,,1.6,0.7,1.4,1*30
$GNGSA,A,3,27,,,,,,,,,,,,1.6,0.7,1.4,3*33
$GNGSA,A,3,11,23,25,32,34,37,41,43,,,,,1.6,0.7,1.4,4*37
$GNGSA,A,3,,,,,,,,,,,,,1.6,0.7,1.4,6*33
$GNGLL,3010.4626600,N,09630.6238966,W,195833.000,A,D*5D
$GNRMC,195833.000,A,3010.4626600,N,09630.6238966,W,000.1,000.0,301223,,,F,V*12
$GNVTG,000.0,T,,M,000.1,N,000.2,K,D*15
$GNZDA,195833.000,30,12,2023,00,00*4E
$PSTI,030,195833.000,A,3010.4626600,N,09630.6238966,W,111.423,0.01,-0.05,0.02,301223,F,1.000,1.000*22
$PSTI,032,195833.000,301223,A,F,1.157,0.249,9.365,9.440,77.87,4.31,,,,*2A
$PSTI,033,195833.000,301223,2,R,0,G,0,,0,,C,0,,0,,E,0,,0,,R,,,,,I,0,,,*22
$PSTI,033,195833.000,301223,2,B,0,G,0,,0,,C,0,,0,,E,0,,0,,R,,,,,I,0,,,*32
$GPGGA,195834.000,3010.4626346,N,09630.6239117,W,5,15,0.7,111.516,M,-24.900,M,1.000,0000*45
$GNGSA,A,3,04,07,08,09,14,30,,,,,,,1.6,0.7,1.4,1*30
$GNGSA,A,3,27,,,,,,,,,,,,1.6,0.7,1.4,3*33
$GNGSA,A,3,11,23,25,32,34,37,41,43,,,,,1.6,0.7,1.4,4*37
$GNGSA,A,3,,,,,,,,,,,,,1.6,0.7,1.4,6*33
$GPGSV,3,1,10,09,70,224,48,08,65,100,45,07,49,327,43,04,42,164,33,1*60
$GPGSV,3,2,10,27,34,050,,30,22,305,39,14,20,252,36,21,11,132,,1*68
$GPGSV,3,3,10,16,10,051,,02,08,143,,1*6B
$GPGSV,2,1,05,09,70,224,43,08,65,100,38,04,42,164,28,30,22,305,38,8*62
$GPGSV,2,2,05,14,20,252,20,8*58
$GAGSV,3,1,09,27,61,013,50,21,47,268,,19,36,313,,07,36,162,,7*7A
$GAGSV,3,2,09,30,15,051,,15,10,102,,34,03,056,,13,03,150,,7*7C
$GAGSV,3,3,09,20,00,000,42,7*4E
$GAGSV,1,1,02,27,61,013,43,20,00,000,11,1*72
$GBGSV,3,1,10,23,59,347,52,43,40,120,31,32,39,268,32,25,36,062,48,1*71
$GBGSV,3,2,10,11,35,089,31,41,28,202,31,34,27,064,46,37,23,288,34,1*7C
$GBGSV,3,3,10,28,11,178,,20,10,319,,1*7B
$GBGSV,2,1,07,23,59,347,44,43,40,120,28,32,39,268,28,25,36,062,42,5*7C
$GBGSV,2,2,07,41,28,202,17,34,27,064,38,37,23,288,31,5*42
$GNGLL,3010.4626346,N,09630.6239117,W,195834.000,A,D*52
$GNRMC,195834.000,A,3010.4626346,N,09630.6239117,W,000.1,000.0,301223,,,F,V*1D
$GNVTG,000.0,T,,M,000.1,N,000.2,K,D*15
$GNZDA,195834.000,30,12,2023,00,00*49
$PSTI,030,195834.000,A,3010.4626346,N,09630.6239117,W,111.516,0.01,-0.06,0.01,301223,F,1.000,1.000*2A
$PSTI,032,195834.000,301223,A,F,1.132,0.202,9.458,9.528,79.91,4.91,,,,*24
$PSTI,033,195834.000,301223,2,R,0,G,0,,0,,C,0,,0,,E,0,,0,,R,,,,,I,0,,,*25
$PSTI,033,195834.000,301223,2,$GPGGA,195841.000,3010.4626395,N,09630.6241060,W,5,15,0.7,111.925,M,-24.900,M,1.000,0000*4B
$GNGSA,A,3,04,07,08,09,14,30,,,,,,,1.6,0.7,1.4,1*30
$GNGSA,A,3,27,,,,,,,,,,,,1.6,0.7,1.4,3*33
$GNGSA,A,3,11,23,25,32,34,37,41,43,,,,,1.6,0.7,1.4,4*37
$GNGSA,A,3,,,,,,,,,,,,,1.6,0.7,1.4,6*33
$GNGLL,3010.4626395,N,09630.6241060,W,195841.000,A,D*50
$GNRMC,195841.000,A,3010.4626395,N,09630.6241060,W,000.1,000.0,301223,,,F,V*1F
$GNVTG,000.0,T,,M,000.1,N,000.2,K,D*15
$GNZDA,195841.000,30,12,2023,00,00*4B
$PSTI,030,195841.000,A,3010.4626395,N,09630.6241060,W,111.925,0.01,-0.05,0.01,301223,F,1.000,1.000*27
$PSTI,032,195841.000,301223,A,F,0.820,0.211,9.867,9.903,75.60,4.17,,,,*26
$PSTI,033,195841.000,301223,2,R,0,G,0,,0,,C,0,,0,,E,0,,0,,R,,,,,I,0,,,*27
$PSTI,033,195841.000,301223,2,B,0,G,0,,0,,C,0,,0,,E,0,,0,,R,,,,,I,0,,,*37
$GPGGA,195842.000,3010.4626542,N,09630.6241344,W,5,15,0.7,112.026,M,-24.900,M,1.000,0000*48
$GNGSA,A,3,04,07,08,09,14,30,,,,,,,1.6,0.7,1.4,1*30
$GNGSA,A,3,27,,,,,,,,,,,,1.6,0.7,1.4,3*33
$GNGSA,A,3,11,23,25,32,34,37,41,43,,,,,1.6,0.7,1.4,4*37
$GNGSA,A,3,,,,,,,,,,,,,1.6,0.7,1.4,6*33
$GNGLL,3010.4626542,N,09630.6241344,W,195842.000,A,D*5A
$GNRMC,195842.000,A,3010.4626542,N,09630.6241344,W,000.1,000.0,301223,,,F,V*15
$GNVTG,000.0,T,,M,000.1,N,000.2,K,D*15
$GNZDA,195842.000,30,12,2023,00,00*48
$PSTI,030,195842.000,A,3010.4626542,N,09630.6241344,W,112.026,0.01,-0.05,0.01,301223,F,1.000,1.000*24
$PSTI,032,195842.000,301223,A,F,0.775,0.238,9.968,10.001,72.94,4.05,,,,*13
$PSTI,033,195842.000,301223,2,R,0,G,0,,0,,C,0,,0,,E,0,,0,,R,,,,,I,0,,,*24
$PSTI,033,195842.000,301223,2,B,0,G,0,,0,,C,0,,0,,E,0,,0,,R,,,,,I,0,,,*34
$GPGGA,195843.000,3010.4626733,N,09630.6241730,W,5,15,0.7,112.103,M,-24.900,M,1.000,0000*4C
$GNGSA,A,3,04,07,08,09,14,30,,,,,,,1.6,0.7,1.4,1*30
$GNGSA,A,3,27,,,,,,,,,,,,1.6,0.7,1.4,3*33
$GNGSA,A,3,11,23,25,32,34,37,41,43,,,,,1.6,0.7,1.4,4*37
$GNGSA,A,3,,,,,,,,,,,,,1.6,0.7,1.4,6*33
$GPGSV,3,1,10,09,70,224,49,08,65,100,45,07,49,327,43,04,42,164,33,1*61
$GPGSV,3,2,10,27,34,050,,30,22,306,38,14,20,252,34,21,11,132,,1*68
$GPGSV,3,3,10,16,10,051,,02,08,143,,1*6B
$GPGSV,2,1,05,09,70,224,43,08,65,100,38,04,42,164,27,30,22,306,38,8*6E
$GPGSV,2,2,05,14,20,252,19,8*52
$GAGSV,3,1,09,27,61,013,50,21,47,268,,19,36,313,,07,36,162,,7*7A
$GAGSV,3,2,09,30,15,051,,15,10,102,,34,03,056,,13,03,150,,7*7C
$GAGSV,3,3,09,20,00,000,42,7*4E
$GAGSV,1,1,02,27,61,013,43,20,00,000,09,1*7B
$GBGSV,3,1,10,23,59,347,53,43,40,120,32,32,39,268,32,25,36,062,49,1*72
$GBGSV,3,2,10,11,35,089,29,41,28,202,31,34,27,064,46,37,23,288,33,1*72
$GBGSV,3,3,10,28,11,178,,20,10,319,,1*7B
$GBGSV,2,1,07,23,59,347,44,43,40,120,28,32,39,268,27,25,36,062,42,5*73
$GBGSV,2,2,07,41,28,202,18,34,27,064,38,37,23,288,31,5*4D
$GNGLL,3010.4626733,N,09630.6241730,W,195843.000,A,D*58
$GNRMC,195843.000,A,3010.4626733,N,09630.6241730,W,000.1,000.0,301223,,,F,V*17
$GNVTG,000.0,T,,M,000.1,N,000.2,K,D*15
$GNZDA,195843.000,30,12,2023,00,00*49
$PSTI,030,195843.000,A,3010.4626733,N,09630.6241730,W,112.103,0.01,-0.05,0.01,301223,F,1.000,1.000*20
$PSTI,032,195843.000,301223,A,F,0.713,0.273,10.045,10.074,69.03,4.84,,,,*2C
$PSTI,033,195843.000,301223,2,R,0,G,0,,0,,C,0,,0,,E,0,,0,,R,,,,,I,0,,,*25
$PSTI,033,195843.000,301223,2,B,0,G,0,,0,,C,0,,0,,E,0,,0,,R,,,,,I,0,,,*35
$GPGGA,195844.000,3010.4627192,N,09630.6242071,W,5,15,0.7,112.188,M,-24.900,M,1.000,0000*45
$GNGSA,A,3,04,07,08,09,14,30,,,,,,,1.6,0.7,1.4,1*30
$GNGSA,A,3,27,,,,,,,,,,,,1.6,0.7,1.4,3*33
$GNGSA,A,3,11,23,25,32,34,37,41,43,,,,,1.6,0.7,1.4,4*37
$GNGSA,A,3,,,,,,,,,,,,,1.6,0.7,1.4,6*33
$GNGLL,3010.4627192,N,09630.6242071,W,195844.000,A,D*52
$GNRMC,195844.000,A,3010.4627192,N,09630.6242071,W,000.1,000.0,301223,,,F,V*1D
$GNVTG,000.0,T,,M,000.1,N,000.2,K,D*15
$GNZDA,195844.000,30,12,2023,00,00*4E
$PSTI,030,195844.000,A,3010.4627192,N,09630.6242071,W,112.188,0.01,-0.04,0.01,301223,F,1.000,1.000*28
$PSTI,032,195844.000,301223,A,F,0.658,0.358,10.130,10.157,61.47,4.08,,,,*22
$PSTI,033,195844.000,301223,2,R,0,G,0,,0,,C,0,,0,,E,0,,0,,R,,,,,I,0,,,*22
$PSTI,033,195844.000,301223,2,B,0,G,0,,0,,C,0,,0,,E,0,,0,,R,,,,,I,0,,,*32
$GPGGA,195845.000,3010.4627380,N,09630.6242322,W,5,15,0.7,112.308,M,-24.900,M,1.000,0000*4A
$GNGSA,A,3,04,07,08,09,14,30,,,,,,,1.6,0.7,1.4,1*30
$GNGSA,A,3,27,,,,,,,,,,,,1.6,0.7,1.4,3*33
$GNGSA,A,3,11,23,25,32,34,37,41,43,,,,,1.6,0.7,1.4,4*37
$GNGSA,A,3,,,,,,,,,,,,,1.6,0.7,1.4,6*33
$GNGLL,3010.4627380,N,09630.6242322,W,195845.000,A,D*57
$GNRMC,195845.000,A,3010.4627380,N,09630.6242322,W,000.1,000.0,301223,,,F,V*18
$GNVTG,000.0,T,,M,000.1,N,000.2,K,D*15
$GNZDA,195845.000,30,12,2023,00,00*4F
$PSTI,030,195845.000,A,3010.4627380,N,09630.6242322,W,112.308,0.01,-0.05,0.01,301223,F,1.000,1.000*26
$PSTI,032,195845.000,301223,A,F,0.618,0.393,10.250,10.276,57.56,3.96,,,,*20
$PSTI,033,195845.000,301223,2,R,0,G,0,,0,,C,0,,0,,E,0,,0,,R,,,,,I,0,,,*23
$PSTI,033,195845.000,301223,2,B,0,G,0,,0,,C,0,,0,,E,0,,0,,R,,,,,I,0,,,*33
$GPGGA,195846.000,3010.4627610,N,09630.6242561,W,5,15,0.7,112.425,M,-24.900,M,1.000,0000*4C
$GNGSA,A,3,04,07,08,09,14,30,,,,,,,1.6,0.7,1.4,1*30
$GNGSA,A,3,27,,,,,,,,,,,,1.6,0.7,1.4,3*33
$GNGSA,A,3,11,23,25,32,34,37,41,43,,,,,1.6,0.7,1.4,4*37
$GNGSA,A,3,,,,,,,,,,,,,1.6,0.7,1.4,6*33
$GPGSV,3,1,10,09,70,224,49,08,65,100,45,07,49,327,43,04,42,164,33,1*61
$GPGSV,3,2,10,27,34,050,,30,22,306,38,14,20,252,33,21,11,132,,1*6F
$GPGSV,3,3,10,16,10,051,,02,08,143,,1*6B
$GPGSV,2,1,05,09,70,224,43,08,65,100,38,04,42,164,27,30,22,306,38,8*6E
$GPGSV,2,2,05,14,20,252,20,8*58
$GAGSV,3,1,09,27,61,013,50,21,47,268,,19,36,313,,07,36,162,,7*7A
$GAGSV,3,2,09,30,15,051,,15,10,102,,34,03,056,,13,03,150,,7*7C
$GAGSV,3,3,09,20,00,000,42,7*4E
$GAGSV,1,1,02,27,61,013,43,20,00,000,11,1*72
$GBGSV,3,1,10,23,59,347,53,43,40,120,32,32,39,268,33,25,36,062,49,1*73
$GBGSV,3,2,10,11,35,089,30,41,28,202,31,34,27,064,46,37,23,288,32,1*7B
$GBGSV,3,3,10,28,11,178,,20,10,319,,1*7B
$GBGSV,2,1,07,23,59,347,44,43,40,120,27,32,39,268,28,25,36,062,42,5*73
$GBGSV,2,2,07,41,28,202,18,34,27,064,38,37,23,288,31,5*4D
$GNGLL,3010.4627610,N,09630.6242561,W,195846.000,A,D*59
$GNRMC,195846.000,A,3010.4627610,N,09630.6242561,W,000.1,000.0,301223,,,F,V*16
$GNVTG,000.0,T,,M,000.1,N,000.1,K,D*16
$GNZDA,195846.000,30,12,2023,00,00*4C
$PSTI,030,195846.000,A,3010.4627610,N,09630.6242561,W,112.425,0.01,-0.04,0.02,301223,F,1.000,1.000*22
$PSTI,032,195846.000,301223,A,F,0.579,0.435,10.367,10.392,53.10,4.71,,,,*2A
$PSTI,033,195846.000,301223,2,R,0,G,0,,0,,C,0,,0,,E,0,,0,,R,,,,,I,0,,,*20
$PSTI,033,195846.000,301223,2,B,0,G,0,,0,,C,0,,0,,E,0,,0,,R,,,,,I,0,,,*30
$GPGGA,195847.000,3010.4628082,N,09630.6242861,W,5,15,0.7,112.486,M,-24.900,M,1.000,0000*4B
$GNGSA,A,3,04,07,08,09,14,30,,,,,,,1.6,0.7,1.4,1*30
$GNGSA,A,3,27,,,,,,,,,,,,1.6,0.7,1.4,3*33
$GNGSA,A,3,11,23,25,32,34,37,41,43,,,,,1.6,0.7,1.4,4*37
$GNGSA,A,3,,,,,,,,,,,,,1.6,0.7,1.4,6*33
$GNGLL,3010.4628082,N,09630.6242861,W,195847.000,A,D*57
$GNRMC,195847.000,A,3010.4628082,N,09630.6242861,W,000.1,000.0,301223,,,F,V*18
$GNVTG,000.0,T,,M,000.1,N,000.2,K,D*15
$GNZDA,195847.000,30,12,2023,00,00*4D
$PSTI,030,195847.000,A,3010.4628082,N,09630.6242861,W,112.486,0.01,-0.05,0.01,301223,F,1.000,1.000*27
$PSTI,032,195847.000,301223,A,F,0.531,0.522,10.428,10.454,45.49,3.98,,,,*2A
$PSTI,033,195847.000$GPGGA,195853.000,3010.4630297,N,09630.6244242,W,5,15,0.7,113.143,M,-24.900,M,1.000,0000*41
$GNGSA,A,3,04,07,08,09,14,30,,,,,,,1.6,0.7,1.4,1*30
$GNGSA,A,3,27,,,,,,,,,,,,1.6,0.7,1.4,3*33
$GNGSA,A,3,11,23,25,32,34,37,41,43,,,,,1.6,0.7,1.4,4*37
$GNGSA,A,3,,,,,,,,,,,,,1.6,0.7,1.4,6*33
$GNGLL,3010.4630297,N,09630.6244242,W,195853.000,A,D*50
$GNRMC,195853.000,A,3010.4630297,N,09630.6244242,W,000.1,000.0,301223,,,F,V*1F
$GNVTG,000.0,T,,M,000.1,N,000.2,K,D*15
$GNZDA,195853.000,30,12,2023,00,00*48
$PSTI,030,195853.000,A,3010.4630297,N,09630.6244242,W,113.143,0.00,-0.05,0.01,301223,F,1.000,1.000*2C
$PSTI,032,195853.000,301223,A,F,0.310,0.932,11.085,11.128,18.39,3.84,,,,*28
$PSTI,033,195853.000,301223,2,R,0,G,0,,0,,C,0,,0,,E,0,,0,,R,,,,,I,0,,,*24
$PSTI,033,195853.000,301223,2,B,0,G,0,,0,,C,0,,0,,E,0,,0,,R,,,,,I,0,,,*34
$GPGGA,195854.000,3010.4630216,N,09630.6244313,W,5,15,0.7,113.153,M,-24.900,M,1.000,0000*4B
$GNGSA,A,3,04,07,08,09,14,30,,,,,,,1.6,0.7,1.4,1*30
$GNGSA,A,3,27,,,,,,,,,,,,1.6,0.7,1.4,3*33
$GNGSA,A,3,11,23,25,32,34,37,41,43,,,,,1.6,0.7,1.4,4*37
$GNGSA,A,3,,,,,,,,,,,,,1.6,0.7,1.4,6*33
$GNGLL,3010.4630216,N,09630.6244313,W,195854.000,A,D*5B
$GNRMC,195854.000,A,3010.4630216,N,09630.6244313,W,000.1,000.0,301223,,,F,V*14
$GNVTG,000.0,T,,M,000.1,N,000.2,K,D*15
$GNZDA,195854.000,30,12,2023,00,00*4F
$PSTI,030,195854.000,A,3010.4630216,N,09630.6244313,W,113.153,0.01,-0.05,0.01,301223,F,1.000,1.000*27
$PSTI,032,195854.000,301223,A,F,0.298,0.917,11.095,11.137,18.03,3.78,,,,*2C
$PSTI,033,195854.000,301223,2,R,0,G,0,,0,,C,0,,0,,E,0,,0,,R,,,,,I,0,,,*23
$PSTI,033,195854.000,301223,2,B,0,G,0,,0,,C,0,,0,,E,0,,0,,R,,,,,I,0,,,*33
$GPGGA,195855.000,3010.4630134,N,09630.6244451,W,5,15,0.7,113.176,M,-24.900,M,1.000,0000*4F
$GNGSA,A,3,04,07,08,09,14,30,,,,,,,1.6,0.7,1.4,1*30
$GNGSA,A,3,27,,,,,,,,,,,,1.6,0.7,1.4,3*33
$GNGSA,A,3,11,23,25,32,34,37,41,43,,,,,1.6,0.7,1.4,4*37
$GNGSA,A,3,,,,,,,,,,,,,1.6,0.7,1.4,6*33
