$GPGGA,200549.000,3010.4619620,N,09630.6240830,W,1,15,0.8,95.279,M,-24.900,M,,0000*51
$GNGSA,A,3,04,07,08,09,14,30,,,,,,,1.7,0.8,1.5,1*3F
$GNGSA,A,3,21,27,,,,,,,,,,,1.7,0.8,1.5,3*3F
$GNGSA,A,3,11,23,25,32,34,37,43,,,,,,1.7,0.8,1.5,4*3D
$GNGSA,A,3,,,,,,,,,,,,,1.7,0.8,1.5,6*3C
$GPGSV,3,1,10,09,67,217,47,08,65,092,47,07,51,330,50,04,39,164,26,1*64
$GPGSV,3,2,10,27,32,048,,30,24,308,21,14,21,254,37,21,13,129,,1*6B
$GPGSV,3,3,10,02,10,140,,16,08,052,,1*6B
$GPGSV,2,1,05,09,67,217,40,08,65,092,41,04,39,164,23,30,24,308,33,8*64
$GPGSV,2,2,05,14,21,254,37,8*59
$GAGSV,3,1,09,27,59,016,48,21,48,272,43,19,38,312,,07,33,163,,7*75
$GAGSV,3,2,09,15,12,100,,30,10,044,,13,05,149,,34,03,053,,7*76
$GAGSV,3,3,09,20,00,000,44,7*48
$GAGSV,1,1,03,27,59,016,42,21,48,272,38,20,00,000,06,1*49
$GBGSV,3,1,10,23,59,353,53,43,42,117,35,32,38,263,41,11,36,085,35,1*7D
$GBGSV,3,2,10,25,34,065,48,34,26,060,41,37,25,291,38,41,25,200,28,1*71
$GBGSV,3,3,10,28,14,177,,20,12,316,,1*7C
$GBGSV,2,1,07,23,59,353,43,43,42,117,26,32,38,263,27,25,34,065,41,5*75
$GBGSV,2,2,07,34,26,060,37,41,25,200,20,37,25,291,32,5*4E
$GNGLL,3010.4619620,N,09630.6240830,W,200549.000,A,A*54
$GNRMC,200549.000,A,3010.4619620,N,09630.6240830,W,000.1,000.0,301223,,,A,V*19
$GNVTG,000.0,T,,M,000.1,N,000.2,K,A*10
$GNZDA,200549.000,30,12,2023,00,00*41
$PSTI,030,200549.000,A,3010.4619620,N,09630.6240830,W,95.279,0.01,-0.05,0.02,301223,A,0.000,0.000*1D
$PSTI,032,200549.000,301223,V,,,,,,,,,,,*40
$GPGGA,200550.000,3010.4619600,N,09630.6240832,W,1,15,0.8,95.277,M,-24.900,M,,0000*57
$GNGSA,A,3,04,07,08,09,14,30,,,,,,,1.7,0.8,1.5,1*3F
$GNGSA,A,3,21,27,,,,,,,,,,,1.7,0.8,1.5,3*3F
$GNGSA,A,3,11,23,25,32,34,37,43,,,,,,1.7,0.8,1.5,4*3D
$GNGSA,A,3,,,,,,,,,,,,,1.7,0.8,1.5,6*3C
$GNGLL,3010.4619600,N,09630.6240832,W,200550.000,A,A*5C
$GNRMC,200550.000,A,3010.4619600,N,09630.6240832,W,000.1,000.0,301223,,,A,V*11
$GNVTG,000.0,T,,M,000.1,N,000.2,K,A*10
$GNZDA,200550.000,30,12,2023,00,00*49
$PSTI,030,200550.000,A,3010.4619600,N,09630.6240832,W,95.277,0.01,-0.05,0.01,301223,A,0.000,0.000*18
$PSTI,032,200550.000,301223,V,,,,,,,,,,,*48
$GPGGA,200551.000,3010.4619580,N,09630.6240835,W,1,15,0.8,95.274,M,-24.900,M,,0000*59
$GNGSA,A,3,04,07,08,09,14,30,,,,,,,1.7,0.8,1.5,1*3F
$GNGSA,A,3,21,27,,,,,,,,,,,1.7,0.8,1.5,3*3F
$GNGSA,A,3,11,23,25,32,34,37,43,,,,,,1.7,0.8,1.5,4*3D
$GNGSA,A,3,,,,,,,,,,,,,1.7,0.8,1.5,6*3C
$GNGLL,3010.4619580,N,09630.6240835,W,200551.000,A,A*51
$GNRMC,200551.000,A,3010.4619580,N,09630.6240835,W,000.1,000.0,301223,,,A,V*1C
$GNVTG,000.0,T,,M,000.1,N,000.2,K,A*10
$GNZDA,200551.000,30,12,2023,00,00*48
$PSTI,030,200551.000,A,3010.4619580,N,09630.6240835,W,95.274,0.01,-0.04,0.01,301223,A,0.000,0.000*17
$PSTI,032,200551.000,301223,V,,,,,,,,,,,*49
$GPGGA,200552.000,3010.4619560,N,09630.6240837,W,1,15,0.8,95.271,M,-24.900,M,,0000*53
$GNGSA,A,3,04,07,08,09,14,30,,,,,,,1.7,0.8,1.5,1*3F
$GNGSA,A,3,21,27,,,,,,,,,,,1.7,0.8,1.5,3*3F
$GNGSA,A,3,11,23,25,32,34,37,43,,,,,,1.7,0.8,1.5,4*3D
$GNGSA,A,3,,,,,,,,,,,,,1.7,0.8,1.5,6*3C
$GPGSV,3,1,10,09,67,217,47,08,65,092,47,07,51,330,50,04,39,164,28,1*6A
$GPGSV,3,2,10,27,32,048,,30,24,308,22,14,21,254,37,21,13,129,,1*68
$GPGSV,3,3,10,02,10,140,,16,08,052,,1*6B
$GPGSV,2,1,05,09,67,217,40,08,65,092,41,04,39,164,23,30,24,308,33,8*64
$GPGSV,2,2,05,14,21,254,37,8*59
$GAGSV,3,1,09,27,59,016,48,21,48,272,42,19,38,312,,07,33,163,,7*74
$GAGSV,3,2,09,15,12,100,,30,10,044,,13,05,149,,34,03,053,,7*76
$GAGSV,3,3,09,20,00,000,44,7*48
$GAGSV,1,1,03,27,59,016,42,21,48,272,38,20,00,000,05,1*4A
$GBGSV,3,1,10,23,59,353,53,43,42,117,35,32,38,263,41,11,36,085,35,1*7D
$GBGSV,3,2,10,25,34,065,48,34,26,060,40,37,25,291,37,41,25,200,28,1*7F
$GBGSV,3,3,10,28,14,177,,20,12,316,,1*7C
$GBGSV,2,1,07,23,59,353,43,43,42,117,27,32,38,263,27,25,34,065,41,5*74
$GBGSV,2,2,07,34,26,060,37,41,25,200,20,37,25,291,32,5*4E
$GNGLL,3010.4619560,N,09630.6240837,W,200552.000,A,A*5E
$GNRMC,200552.000,A,3010.4619560,N,09630.6240837,W,000.1,000.0,301223,,,A,V*13
$GNVTG,000.0,T,,M,000.1,N,000.2,K,A*10
$GNZDA,200552.000,30,12,2023,00,00*4B
$PSTI,030,200552.000,A,3010.4619560,N,09630.6240837,W,95.271,0.01,-0.05,0.01,301223,A,0.000,0.000*1C
$PSTI,032,200552.000,301223,V,,,,,,,,,,,*4A
$GPGGA,200553.000,3010.4619541,N,09630.6240839,W,1,15,0.8,95.269,M,-24.900,M,,0000*56
$GNGSA,A,3,04,07,08,09,14,30,,,,,,,1.7,0.8,1.5,1*3F
$GNGSA,A,3,21,27,,,,,,,,,,,1.7,0.8,1.5,3*3F
$GNGSA,A,3,11,23,25,32,34,37,43,,,,,,1.7,0.8,1.5,4*3D
$GNGSA,A,3,,,,,,,,,,,,,1.7,0.8,1.5,6*3C
$GNGLL,3010.4619541,N,09630.6240839,W,200553.000,A,A*52
$GNRMC,200553.000,A,3010.4619541,N,09630.6240839,W,000.1,000.0,301223,,,A,V*1F
$GNVTG,000.0,T,,M,000.1,N,000.2,K,A*10
$GNZDA,200553.000,30,12,2023,00,00*4A
$PSTI,030,200553.000,A,3010.4619541,N,09630.6240839,W,95.269,0.01,-0.05,0.01,301223,A,0.000,0.000*19
$PSTI,032,200553.000,301223,V,,,,,,,,,,,*4B
$GPGGA,200554.000,3010.4619521,N,09630.6240841,W,1,15,0.8,95.267,M,-24.900,M,,0000*56
$GNGSA,A,3,04,07,08,09,14,30,,,,,,,1.7,0.8,1.5,1*3F
$GNGSA,A,3,21,27,,,,,,,,,,,1.7,0.8,1.5,3*3F
$GNGSA,A,3,11,23,25,32,34,37,43,,,,,,1.7,0.8,1.5,4*3D
$GNGSA,A,3,,,,,,,,,,,,,1.7,0.8,1.5,6*3C
$GNGLL,3010.4619521,N,09630.6240841,W,200554.000,A,A*5C
$GNRMC,200554.000,A,3010.4619521,N,09630.6240841,W,000.1,000.0,301223,,,A,V*11
$GNVTG,000.0,T,,M,000.1,N,000.2,K,A*10
$GNZDA,200554.000,30,12,2023,00,00*4D
$PSTI,030,200554.000,A,3010.4619521,N,09630.6240841,W,95.267,0.01,-0.05,0.02,301223,A,0.000,0.000*1A
$PSTI,032,200554.000,301223,V,,,,,,,,,,,*4C
$GPGGA,200555.000,3010.4619502,N,09630.6240843,W,1,15,0.8,95.264,M,-24.900,M,,0000*57
$GNGSA,A,3,04,07,08,09,14,30,,,,,,,1.7,0.8,1.5,1*3F
$GNGSA,A,3,21,27,,,,,,,,,,,1.7,0.8,1.5,3*3F
$GNGSA,A,3,11,23,25,32,34,37,43,,,,,,1.7,0.8,1.5,4*3D
$GNGSA,A,3,,,,,,,,,,,,,1.7,0.8,1.5,6*3C
$GPGSV,3,1,10,09,67,217,47,08,65,092,47,07,51,330,50,04,39,164,28,1*6A
$GPGSV,3,2,10,27,32,048,,30,24,308,24,14,21,254,37,21,13,129,,1*6E
$GPGSV,3,3,10,02,10,140,,16,08,052,,1*6B
$GPGSV,2,1,05,09,67,217,40,08,65,092,41,04,39,164,23,30,24,308,33,8*64
$GPGSV,2,2,05,14,21,254,37,8*59
$GAGSV,3,1,09,27,59,016,48,21,48,272,42,19,38,312,,07,33,163,,7*74
$GAGSV,3,2,09,15,12,100,,30,10,044,,13,05,149,,34,03,053,,7*76
$GAGSV,3,3,09,20,00,000,44,7*48
$GAGSV,1,1,03,27,59,016,42,21,48,272,38,20,00,000,09,1*46
$GBGSV,3,1,10,23,59,353,53,43,42,117,35,32,38,263,42,11,36,085,35,1*7E
$GBGSV,3,2,10,25,34,065,48,34,26,060,40,37,25,291,37,41,25,200,28,1*7F
$GBGSV,3,3,10,28,14,177,,20,12,316,,1*7C
$GBGSV,2,1,07,23,59,353,43,43,42,117,26,32,38,263,27,25,34,065,41,5*75
$GBGSV,2,2,07,34,26,060,37,41,25,200,20,37,25,291,32,5*4E
$GNGLL,3010.4619502,N,09630.6240843,W,200555.000,A,A*5E
$GNRMC,200555.000,A,3010.4619502,N,09630.6240843,W,000.1,000.0,301223,,,A,V*13
$GNVTG,000.0,T,,M,000.1,N,000.2,K,A*10
$GNZDA,200555.000,30,12,2023,00,00*4C
$PSTI,030,200555.000,A,3010.4619502,N,09630.6240843,W,95.264,0.01,-0.05,0.01,301223,A,0.000,0.000*18
$PSTI,032,200555.000,301223,V,,,,,,,,,,,*4D
$GPGGA,200556.000,3010.4619483,N,09630.6240845,W,1,15,0.8,95.262,M,-24.900,M,,0000*5C
$GNGSA,A,3,04,07,08,09,14,30,,,,,,,1.7,0.8,1.5,1*3F
$GNGSA,A,3,21,27,,,,,,,,,,,1.7,0.8,1.5,3*3F
$GNGSA,A,3,11,23,25,32,34,37,43,,,,,,1.7,0.8,1.5,4*3D
$GNGSA,A,3,,,,,,,,,,,,,1.7,0.8,1.5,6*3C
$GNGLL,3010.4619483,N,09630.6240845,W,200556.000,A,A*53
$GNRMC,200556.000,A,3010.4619483,N,09630.6240845,W,000.1,000.0,301223,,,A,V*1E
$GNVTG,000.0,T,,M,000.1,N,000.2,K,A*10
$GNZDA,200556.000,30,12,2023,00,00*4F
$PSTI,030,200556.000,A,3010.4619483,N,09630.6240845,W,95.262,0.01,-0.05,0.01,301223,A,0.000,0.000*13
$PSTI,032,200556.000,301223,V,,,,,,,,,,,*4E
$GPGGA,200557.000,3010.4619464,N,09630.6240847,W,1,15,0.8,95.259,M,-24.900,M,,0000*5E
$GNGSA,A,3,04,07,08,09,14,30,,,,,,,1.7,0.8,1.5,1*3F
$GNGSA,A,3,21,27,,,,,,,,,,,1.7,0.8,1.5,3*3F
$GNGSA,A,3,11,23,25,32,34,37,43,,,,,,1.7,0.8,1.5,4*3D
$GNGSA,A,3,,,,,,,,,,,,,1.7,0.8,1.5,6*3C
$GNGLL,3010.4619464,N,09630.6240847,W,200557.000,A,A*59
$GNRMC,200557.000,A,3010.4619464,N,09630.6240847,W,000.1,000.0,301223,,,A,V*14
$GNVTG,000.0,T,,M,000.1,N,000.2,K,A*10
$GNZDA,200557.000,30,12,2023,00,00*4E
$PSTI,030,200557.000,A,3010.4619464,N,09630.6240847,W,95.259,0.02,-0.05,0.01,301223,A,0.000,0.000*12
$PSTI,032,200557.000,301223,V,,,,,,,,,,,*4F
$GPGGA,200558.000,3010.4619446,N,09630.6240848,W,1,15,0.8,95.257,M,-24.900,M,,0000*50
$GNGSA,A,3,04,07,08,09,14,30,,,,,,,1.7,0.8,1.5,1*3F
$GNGSA,A,3,21,27,,,,,,,,,,,1.7,0.8,1.5,3*3F
$GNGSA,A,3,11,23,25,32,34,37,43,,,,,,1.7,0.8,1.5,4*3D
$GNGSA,A,3,,,,,,,,,,,,,1.7,0.8,1.5,6*3C
$GPGSV,3,1,10,09,67,217,47,08,65,092,47,07,51,330,49,04,39,164,29,1*63
$GPGSV,3,2,10,27,32,048,,30,24,308,25,14,21,254,38,21,13,129,,1*60
$GPGSV,3,3,10,02,10,140,,16,08,052,,1*6B
$GPGSV,2,1,05,09,67,217,40,08,65,092,41,04,39,164,23,30,24,308,33,8*64
$GPGSV,2,2,05,14,21,254,37,8*59
$GAGSV,3,1,09,27,59,016,48,21,48,272,42,19,38,312,,07,33,163,,7*74
$GAGSV,3,2,09,15,12,100,,30,10,044,,13,05,149,,34,03,053,,7*76
$GAGSV,3,3,09,20,00,000,44,7*48
$GAGSV,1,1,03,27,59,016,42,21,48,272,38,20,00,000,07,1*48
$GBGSV,3,1,10,23,59,353,52,43,42,117,35,32,38,263,41,11,36,085,35,1*7C
$GBGSV,3,2,10,25,34,065,48,34,26,060,40,37,25,291,37,41,25,200,28,1*7F
$GBGSV,3,3,10,28,14,177,,20,12,316,,1*7C
$GBGSV,2,1,07,23,59,353,43,43,42,117,26,32,38,263,26,25,34,065,41,5*74
$GBGSV,2,2,07,34,26,060,37,41,25,200,19,37,25,291,32,5*44
$GNGLL,3010.4619446,N,09630.6240848,W,200558.000,A,A*59
$GNRMC,200558.000,A,3010.4619446,N,09630.6240848,W,000.1,000.0,301223,,,A,V*14
$GNVTG,000.0,T,,M,000.1,N,000.2,K,A*10
$GNZDA,200558.000,30,12,2023,00,00*41
$PSTI,030,200558.000,A,3010.4619446,N,09630.6240848,W,95.257,0.01,-0.04,0.01,301223,A,0.000,0.000*1E
$PSTI,032,200558.000,301223,V,,,,,,,,,,,*40
$GPGGA,200559.000,3010.4619427,N,09630.6240850,W,1,15,0.8,95.254,M,-24.900,M,,0000*5C
$GNGSA,A,3,04,07,08,09,14,30,,,,,,,1.7,0.8,1.5,1*3F
$GNGSA,A,3,21,27,,,,,,,,,,,1.7,0.8,1.5,3*3F
$GNGSA,A,3,11,23,25,32,34,37,43,,,,,,1.7,0.8,1.5,4*3D
$GNGSA,A,3,,,,,,,,,,,,,1.7,0.8,1.5,6*3C
$GNGLL,3010.4619427,N,09630.6240850,W,200559.000,A,A*56
$GNRMC,200559.000,A,3010.4619427,N,09630.6240850,W,000.1,000.0,301223,,,A,V*1B
$GNVTG,000.0,T,,M,000.1,N,000.2,K,A*10
$GNZDA,200559.000,30,12,2023,00,00*40
$PSTI,030,200559.000,A,3010.4619427,N,09630.6240850,W,95.254,0.01,-0.05,0.01,301223,A,0.000,0.000*13
$PSTI,032,200559.000,301223,V,,,,,,,,,,,*41
$GPGGA,200600.000,3010.4619408,N,09630.6240852,W,1,15,0.8,95.252,M,-24.900,M,,0000*5A
$GNGSA,A,3,04,07,08,09,14,30,,,,,,,1.7,0.8,1.5,1*3F
$GNGSA,A,3,21,27,,,,,,,,,,,1.7,0.8,1.5,3*3F
$GNGSA,A,3,11,23,25,32,34,37,43,,,,,,1.7,0.8,1.5,4*3D
$GNGSA,A,3,,,,,,,,,,,,,1.7,0.8,1.5,6*3C
$GNGLL,3010.4619408,N,09630.6240852,W,200600.000,A,A*56
$GNRMC,200600.000,A,3010.4619408,N,09630.6240852,W,000.1,000.0,301223,,,A,V*1B
$GNVTG,000.0,T,,M,000.1,N,000.2,K,A*10
$GNZDA,200600.000,30,12,2023,00,00*4F
$PSTI,030,200600.000,A,3010.4619408,N,09630.6240852,W,95.252,0.01,-0.04,0.01,301223,A,0.000,0.000*14
$PSTI,032,200600.000,301223,V,,,,,,,,,,,*4E
$GPGGA,200601.000,3010.4619390,N,09630.6240853,W,1,15,0.8,95.250,M,-24.900,M,,0000*5E
$GNGSA,A,3,04,07,08,09,14,30,,,,,,,1.7,0.8,1.5,1*3F
$GNGSA,A,3,21,27,,,,,,,,,,,1.7,0.8,1.5,3*3F
$GNGSA,A,3,11,23,25,32,34,37,43,,,,,,1.7,0.8,1.5,4*3D
$GNGSA,A,3,,,,,,,,,,,,,1.7,0.8,1.5,6*3C
$GPGSV,3,1,10,09,67,217,47,08,65,092,47,07,51,330,50,04,39,164,30,1*63
$GPGSV,3,2,10,27,32,048,,30,24,308,26,14,21,254,38,21,13,129,,1*63
$GPGSV,3,3,10,02,10,140,,16,08,052,,1*6B
$GPGSV,2,1,05,09,67,217,40,08,65,092,41,04,39,164,23,30,24,308,33,8*64
$GPGSV,2,2,05,14,21,254,37,8*59
$GAGSV,3,1,09,27,59,016,48,21,48,272,42,19,38,312,,07,33,163,,7*74
$GAGSV,3,2,09,15,12,100,,30,10,044,,13,05,148,,34,03,053,,7*77
$GAGSV,3,3,09,20,00,000,43,7*4F
$GAGSV,1,1,03,27,59,016,42,21,48,272,38,20,00,000,05,1*4A
$GBGSV,3,1,10,23,59,353,52,43,42,117,35,32,38,263,41,11,36,085,35,1*7C
$GBGSV,3,2,10,25,34,065,48,34,26,060,40,37,25,291,37,41,25,200,28,1*7F
$GBGSV,3,3,10,28,14,177,,20,12,316,,1*7C
$GBGSV,2,1,07,23,59,353,43,43,42,117,26,32,38,263,27,25,34,065,41,5*75
$GBGSV,2,2,07,34,26,060,37,41,25,200,20,37,25,291,32,5*4E
$GNGLL,3010.4619390,N,09630.6240853,W,200601.000,A,A*50
$GNRMC,200601.000,A,3010.4619390,N,09630.6240853,W,000.1,000.0,301223,,,A,V*1D
$GNVTG,000.0,T,,M,000.1,N,000.2,K,A*10
$GNZDA,200601.000,30,12,2023,00,00*4E
$PSTI,030,200601.000,A,3010.4619390,N,09630.6240853,W,95.250,0.01,-0.05,0.01,301223,A,0.000,0.000*11
$PSTI,032,200601.000,301223,V,,,,,,,,,,,*4F
$GPGGA,200602.000,3010.4619372,N,09630.6240854,W,1,15,0.8,95.248,M,-24.900,M,,0000*5F
$GNGSA,A,3,04,07,08,09,14,30,,,,,,,1.7,0.8,1.5,1*3F
$GNGSA,A,3,21,27,,,,,,,,,,,1.7,0.8,1.5,3*3F
$GNGSA,A,3,11,23,25,32,34,37,43,,,,,,1.7,0.8,1.5,4*3D
$GNGSA,A,3,,,,,,,,,,,,,1.7,0.8,1.5,6*3C
$GNGLL,3010.4619372,N,09630.6240854,W,200602.000,A,A*58
$GNRMC,200602.000,A,3010.4619372,N,09630.6240854,W,000.1,000.0,301223,,,A,V*15
$GNVTG,000.0,T,,M,000.1,N,000.2,K,A*10
$GNZDA,200602.000,30,12,2023,00,00*4D
$PSTI,030,200602.000,A,3010.4619372,N,09630.6240854,W,95.248,0.02,-0.06,0.01,301223,A,0.000,0.000*10
$PSTI,032,200602.000,301223,V,,,,,,,,,,,*4C
$GPGGA,200603.000,3010.4619354,N,09630.6240855,W,1,15,0.8,95.245,M,-24.900,M,,0000*56
$GNGSA,A,3,04,07,08,09,14,30,,,,,,,1.7,0.8,1.5,1*3F
$GNGSA,A,3,21,27,,,,,,,,,,,1.7,0.8,1.5,3*3F
$GNGSA,A,3,11,23,25,32,34,37,43,,,,,,1.7,0.8,1.5,4*3D
$GNGSA,A,3,,,,,,,,,,,,,1.7,0.8,1.5,6*3C
$GNGLL,3010.4619354,N,09630.6240855,W,200603.000,A,A*5C
$GNRMC,200603.000,A,3010.4619354,N,09630.6240855,W,000.1,000.0,301223,,,A,V*11
$GNVTG,000.0,T,,M,000.1,N,000.2,K,A*10
$GNZDA,200603.000,30,12,2023,00,00*4C
$PSTI,030,200603.000,A,3010.4619354,N,09630.6240855,W,95.245,0.01,-0.04,0.01,301223,A,0.000,0.000*18
$PSTI,032,200603.000,301223,V,,,,,,,,,,,*4D
$GPGGA,200604.000,3010.4619336,N,09630.6240856,W,1,15,0.8,95.243,M,-24.900,M,,0000*50
$GNGSA,A,3,04,07,08,09,14,30,,,,,,,1.7,0.8,1.5,1*3F
$GNGSA,A,3,21,27,,,,,,,,,,,1.7,0.8,1.5,3*3F
$GNGSA,A,3,11,23,25,32,34,37,43,,,,,,1.7,0.8,1.5,4*3D
$GNGSA,A,3,,,,,,,,,,,,,1.7,0.8,1.5,6*3C
$GPGSV,3,1,10,09,67,217,47,08,65,092,47,07,51,330,49,04,39,164,31,1*6A
$GPGSV,3,2,10,27,32,048,,30,24,308,26,14,21,254,38,21,13,129,,1*63
$GPGSV,3,3,10,02,10,140,,16,08,052,,1*6B
$GPGSV,2,1,05,09,67,217,40,08,65,092,41,04,39,164,23,30,24,308,33,8*64
$GPGSV,2,2,05,14,21,254,37,8*59
$GAGSV,3,1,09,27,59,016,48,21,48,273,42,19,38,311,,07,33,163,,7*76
$GAGSV,3,2,09,15,12,100,,30,10,044,,13,05,148,,34,03,053,,7*77
$GAGSV,3,3,09,20,00,000,44,7*48
$GAGSV,1,1,03,27,59,016,42,21,48,273,38,20,00,000,08,1*46
$GBGSV,3,1,10,23,59,353,52,43,42,117,35,32,38,263,41,11,36,085,35,1*7C
$GBGSV,3,2,10,25,34,065,48,34,26,060,40,37,25,291,36,41,25,200,27,1*71
$GBGSV,3,3,10,28,14,177,,20,12,316,,1*7C
$GBGSV,2,1,07,23,59,353,43,43,42,117,27,32,38,263,27,25,34,065,41,5*74
$GBGSV,2,2,07,34,26,060,37,41,25,200,20,37,25,291,32,5*4E
$GNGLL,3010.4619336,N,09630.6240856,W,200604.000,A,A*5C
$GNRMC,200604.000,A,3010.4619336,N,09630.6240856,W,000.1,000.0,301223,,,A,V*11
$GNVTG,000.0,T,,M,000.1,N,000.2,K,A*10
$GNZDA,200604.000,30,12,2023,00,00*4B
$PSTI,030,200604.000,A,3010.4619336,N,09630.6240856,W,95.243,0.02,-0.05,0.01,301223,A,0.000,0.000*1C
$PSTI,032,200604.000,301223,V,,,,,,,,,,,*4A
$GPGGA,200605.000,3010.4619318,N,09630.6240857,W,1,15,0.8,95.241,M,-24.900,M,,0000*5E
$GNGSA,A,3,04,07,08,09,14,30,,,,,,,1.7,0.8,1.5,1*3F
$GNGSA,A,3,21,27,,,,,,,,,,,1.7,0.8,1.5,3*3F
$GNGSA,A,3,11,23,25,32,34,37,43,,,,,,1.7,0.8,1.5,4*3D
$GNGSA,A,3,,,,,,,,,,,,,1.7,0.8,1.5,6*3C
$GNGLL,3010.4619318,N,09630.6240857,W,200605.000,A,A*50
$GNRMC,200605.000,A,3010.4619318,N,09630.6240857,W,000.1,000.0,301223,,,A,V*1D
$GNVTG,000.0,T,,M,000.1,N,000.2,K,A*10
$GNZDA,200605.000,30,12,2023,00,00*4A
$PSTI,030,200605.000,A,3010.4619318,N,09630.6240857,W,95.241,0.01,-0.05,0.01,301223,A,0.000,0.000*11
$PSTI,032,200605.000,301223,V,,,,,,,,,,,*4B
$GPGGA,200606.000,3010.4619301,N,09630.6240858,W,1,15,0.8,95.239,M,-24.900,M,,0000*55
$GNGSA,A,3,04,07,08,09,14,30,,,,,,,1.7,0.8,1.5,1*3F
$GNGSA,A,3,21,27,,,,,,,,,,,1.7,0.8,1.5,3*3F
$GNGSA,A,3,11,23,25,32,34,37,43,,,,,,1.7,0.8,1.5,4*3D
$GNGSA,A,3,,,,,,,,,,,,,1.7,0.8,1.5,6*3C
$GNGLL,3010.4619301,N,09630.6240858,W,200606.000,A,A*54
$GNRMC,200606.000,A,3010.4619301,N,09630.6240858,W,000.1,000.0,301223,,,A,V*19
$GNVTG,000.0,T,,M,000.1,N,000.2,K,A*10
$GNZDA,200606.000,30,12,2023,00,00*49
$PSTI,030,200606.000,A,3010.4619301,N,09630.6240858,W,95.239,0.01,-0.05,0.01,301223,A,0.000,0.000*1A
$PSTI,032,200606.000,301223,V,,,,,,,,,,,*48
$GPGGA,200607.000,3010.4619284,N,09630.6240858,W,1,15,0.8,95.236,M,-24.900,M,,0000*57
$GNGSA,A,3,04,07,08,09,14,30,,,,,,,1.7,0.8,1.5,1*3F
$GNGSA,A,3,21,27,,,,,,,,,,,1.7,0.8,1.5,3*3F
$GNGSA,A,3,11,23,25,32,34,37,43,,,,,,1.7,0.8,1.5,4*3D
$GNGSA,A,3,,,,,,,,,,,,,1.7,0.8,1.5,6*3C
$GPGSV,3,1,10,09,67,217,47,08,65,092,47,07,51,330,50,04,39,164,31,1*62
$GPGSV,3,2,10,27,32,048,,30,24,308,27,14,21,254,38,21,13,129,,1*62
$GPGSV,3,3,10,02,10,140,,16,08,052,,1*6B
$GPGSV,2,1,05,09,67,217,40,08,65,092,42,04,39,164,22,30,24,308,33,8*66
$GPGSV,2,2,05,14,21,254,37,8*59
$GAGSV,3,1,09,27,58,017,48,21,48,273,42,19,38,311,,07,33,163,,7*76
$GAGSV,3,2,09,15,12,100,,30,10,044,,13,05,148,,34,03,053,,7*77
$GAGSV,3,3,09,20,00,000,44,7*48
$GAGSV,1,1,03,27,58,017,42,21,48,273,38,20,00,000,06,1*48
$GBGSV,3,1,10,23,59,353,52,43,42,117,35,32,38,263,41,11,36,085,35,1*7C
$GBGSV,3,2,10,25,34,065,48,34,26,060,40,37,25,291,36,41,25,200,28,1*7E
$GBGSV,3,3,10,28,14,177,,20,12,316,,1*7C
$GBGSV,2,1,07,23,59,353,43,43,42,117,27,32,38,263,27,25,34,065,41,5*74
$GBGSV,2,2,07,34,26,060,37,41,25,200,20,37,25,291,32,5*4E
$GNGLL,3010.4619284,N,09630.6240858,W,200607.000,A,A*59
$GNRMC,200607.000,A,3010.4619284,N,09630.6240858,W,000.1,000.0,301223,,,A,V*14
$GNVTG,000.0,T,,M,000.1,N,000.1,K,A*13
$GNZDA,200607.000,30,12,2023,00,00*48
$PSTI,030,200607.000,A,3010.4619284,N,09630.6240858,W,95.236,0.01,-0.04,0.01,301223,A,0.000,0.000*19
$PSTI,032,200607.000,301223,V,,,,,,,,,,,*49
$GPGGA,200608.000,3010.4619266,N,09630.6240859,W,1,15,0.8,95.234,M,-24.900,M,,0000*57
$GNGSA,A,3,04,07,08,09,14,30,,,,,,,1.7,0.8,1.5,1*3F
$GNGSA,A,3,21,27,,,,,,,,,,,1.7,0.8,1.5,3*3F
$GNGSA,A,3,11,23,25,32,34,37,43,,,,,,1.7,0.8,1.5,4*3D
$GNGSA,A,3,,,,,,,,,,,,,1.7,0.8,1.5,6*3C
$GNGLL,3010.4619266,N,09630.6240859,W,200608.000,A,A*5B
$GNRMC,200608.000,A,3010.4619266,N,09630.6240859,W,000.1,000.0,301223,,,A,V*16
$GNVTG,000.0,T,,M,000.1,N,000.1,K,A*13
$GNZDA,200608.000,30,12,2023,00,00*47
$PSTI,030,200608.000,A,3010.4619266,N,09630.6240859,W,95.234,0.01,-0.04,0.02,301223,A,0.000,0.000*1A
$PSTI,032,200608.000,301223,V,,,,,,,,,,,*46
$GPGGA,200609.000,3010.4619249,N,09630.6240859,W,1,15,0.8,95.232,M,-24.900,M,,0000*5D
$GNGSA,A,3,04,07,08,09,14,30,,,,,,,1.7,0.8,1.5,1*3F
$GNGSA,A,3,21,27,,,,,,,,,,,1.7,0.8,1.5,3*3F
$GNGSA,A,3,11,23,25,32,34,37,43,,,,,,1.7,0.8,1.5,4*3D
$GNGSA,A,3,,,,,,,,,,,,,1.7,0.8,1.5,6*3C
$GNGLL,3010.4619249,N,09630.6240859,W,200609.000,A,A*57
$GNRMC,200609.000,A,3010.4619249,N,09630.6240859,W,000.1,000.0,301223,,,A,V*1A
$GNVTG,000.0,T,,M,000.1,N,000.2,K,A*10
$GNZDA,200609.000,30,12,2023,00,00*46
$PSTI,030,200609.000,A,3010.4619249,N,09630.6240859,W,95.232,0.01,-0.05,0.01,301223,A,0.000,0.000*12
$PSTI,032,200609.000,301223,V,,,,,,,,,,,*47
$GPGGA,200610.000,3010.4619232,N,09630.6240859,W,1,15,0.8,95.230,M,-24.900,M,,0000*5B
$GNGSA,A,3,04,07,08,09,14,30,,,,,,,1.7,0.8,1.5,1*3F
$GNGSA,A,3,21,27,,,,,,,,,,,1.7,0.8,1.5,3*3F
$GNGSA,A,3,11,23,25,32,34,37,43,,,,,,1.7,0.8,1.5,4*3D
$GNGSA,A,3,,,,,,,,,,,,,1.7,0.8,1.5,6*3C
$GPGSV,3,1,10,09,67,217,48,08,65,092,47,07,51,330,50,04,39,164,31,1*6D
$GPGSV,3,2,10,27,32,048,,30,24,308,29,14,21,254,38,21,13,129,,1*6C
$GPGSV,3,3,10,02,10,140,,16,08,052,,1*6B
$GPGSV,2,1,05,09,67,217,40,08,65,092,42,04,39,164,22,30,24,308,33,8*66
$GPGSV,2,2,05,14,21,254,37,8*59
$GAGSV,3,1,09,27,58,017,48,21,48,273,42,19,38,311,,07,33,163,,7*76
$GAGSV,3,2,09,15,12,100,,30,09,044,,13,05,148,,34,03,053,,7*7F
$GAGSV,3,3,09,20,00,000,44,7*48
$GAGSV,1,1,03,27,58,017,42,21,48,273,38,20,00,000,12,1*4D
$GBGSV,3,1,10,23,59,353,53,43,42,117,35,32,38,263,41,11,36,085,36,1*7E
$GBGSV,3,2,10,25,34,065,47,34,26,060,40,37,25,291,37,41,25,200,27,1*7F
$GBGSV,3,3,10,28,14,177,,20,12,316,,1*7C
$GBGSV,2,1,07,23,59,353,43,43,42,117,27,32,38,263,27,25,34,065,41,5*74
$GBGSV,2,2,07,34,26,060,37,41,25,200,20,37,25,291,31,5*4D
$GNGLL,3010.4619232,N,09630.6240859,W,200610.000,A,A*53
$GNRMC,200610.000,A,3010.4619232,N,09630.6240859,W,000.1,000.0,301223,,,A,V*1E
$GNVTG,000.0,T,,M,000.1,N,000.2,K,A*10
$GNZDA,200610.000,30,12,2023,00,00*4E
$PSTI,030,200610.000,A,3010.4619232,N,09630.6240859,W,95.230,0.01,-0.06,0.00,301223,A,0.000,0.000*16
$PSTI,032,200610.000,301223,V,,,,,,,,,,,*4F
$GPGGA,200611.000,3010.4619215,N,09630.6240859,W,1,15,0.8,95.228,M,-24.900,M,,0000*56
$GNGSA,A,3,04,07,08,09,14,30,,,,,,,1.7,0.8,1.5,1*3F
$GNGSA,A,3,21,27,,,,,,,,,,,1.7,0.8,1.5,3*3F
$GNGSA,A,3,11,23,25,32,34,37,43,,,,,,1.7,0.8,1.5,4*3D
$GNGSA,A,3,,,,,,,,,,,,,1.7,0.8,1.5,6*3C
$GNGLL,3010.4619215,N,09630.6240859,W,200611.000,A,A*57
$GNRMC,200611.000,A,3010.4619215,N,09630.6240859,W,000.1,000.0,301223,,,A,V*1A
$GNVTG,000.0,T,,M,000.1,N,000.2,K,A*10
$GNZDA,200611.000,30,12,2023,00,00*4F
$PSTI,030,200611.000,A,3010.4619215,N,09630.6240859,W,95.228,0.01,-0.04,0.01,301223,A,0.000,0.000*18
$PSTI,032,200611.000,301223,V,,,,,,,,,,,*4E
$GPGGA,200612.000,3010.4619198,N,09630.6240859,W,1,15,0.8,95.226,M,-24.900,M,,0000*5D
$GNGSA,A,3,04,07,08,09,14,30,,,,,,,1.7,0.8,1.5,1*3F
$GNGSA,A,3,21,27,,,,,,,,,,,1.7,0.8,1.5,3*3F
$GNGSA,A,3,11,23,25,32,34,37,43,,,,,,1.7,0.8,1.5,4*3D
$GNGSA,A,3,,,,,,,,,,,,,1.7,0.8,1.5,6*3C
$GNGLL,3010.4619198,N,09630.6240859,W,200612.000,A,A*52
$GNRMC,200612.000,A,3010.4619198,N,09630.6240859,W,000.1,000.0,301223,,,A,V*1F
$GNVTG,000.0,T,,M,000.1,N,000.3,K,A*11
$GNZDA,200612.000,30,12,2023,00,00*4C
$PSTI,030,200612.000,A,3010.4619198,N,09630.6240859,W,95.226,0.02,-0.07,0.00,301223,A,0.000,0.000*12
$PSTI,032,200612.000,301223,V,,,,,,,,,,,*4D
$GPGGA,200613.000,3010.4619181,N,09630.6240859,W,1,15,0.8,95.223,M,-24.900,M,,0000*51
$GNGSA,A,3,04,07,08,09,14,30,,,,,,,1.7,0.8,1.5,1*3F
$GNGSA,A,3,21,27,,,,,,,,,,,1.7,0.8,1.5,3*3F
$GNGSA,A,3,11,23,25,32,34,37,43,,,,,,1.7,0.8,1.5,4*3D
$GNGSA,A,3,,,,,,,,,,,,,1.7,0.8,1.5,6*3C
$GPGSV,3,1,10,09,67,217,48,08,65,092,48,07,51,330,50,04,39,164,31,1*62
$GPGSV,3,2,10,27,32,048,,30,24,308,30,14,21,254,38,21,13,129,,1*64
$GPGSV,3,3,10,02,10,140,,16,08,052,,1*6B
$GPGSV,2,1,05,09,67,217,40,08,65,092,42,04,39,164,22,30,24,308,33,8*66
$GPGSV,2,2,05,14,21,254,36,8*58
$GAGSV,3,1,09,27,58,017,48,21,48,273,42,19,38,311,,07,33,163,,7*76
$GAGSV,3,2,09,15,12,100,,30,09,044,,13,05,148,,34,03,053,,7*7F
$GAGSV,3,3,09,20,00,000,43,7*4F
$GAGSV,1,1,03,27,58,017,42,21,48,273,38,20,00,000,09,1*47
$GBGSV,3,1,10,23,59,353,53,43,42,117,35,32,38,263,41,11,36,085,36,1*7E
$GBGSV,3,2,10,25,34,065,48,34,26,060,40,37,25,291,37,41,25,200,27,1*70
$GBGSV,3,3,10,28,14,177,,20,12,316,,1*7C
$GBGSV,2,1,07,23,59,353,43,43,42,117,27,32,38,263,27,25,34,065,42,5*77
$GBGSV,2,2,07,34,26,060,37,41,25,200,21,37,25,291,31,5*4C
$GNGLL,3010.4619181,N,09630.6240859,W,200613.000,A,A*5B
$GNRMC,200613.000,A,3010.4619181,N,09630.6240859,W,000.1,000.0,301223,,,A,V*16
$GNVTG,000.0,T,,M,000.1,N,000.2,K,A*10
$GNZDA,200613.000,30,12,2023,00,00*4D
$PSTI,030,200613.000,A,3010.4619181,N,09630.6240859,W,95.223,0.01,-0.04,0.01,301223,A,0.000,0.000*1F
$PSTI,032,200613.000,301223,V,,,,,,,,,,,*4C
$GPGGA,200614.000,3010.4619164,N,09630.6240859,W,1,15,0.8,95.221,M,-24.900,M,,0000*5F
$GNGSA,A,3,04,07,08,09,14,30,,,,,,,1.7,0.8,1.5,1*3F
$GNGSA,A,3,21,27,,,,,,,,,,,1.7,0.8,1.5,3*3F
$GNGSA,A,3,11,23,25,32,34,37,43,,,,,,1.7,0.8,1.5,4*3D
$GNGSA,A,3,,,,,,,,,,,,,1.7,0.8,1.5,6*3C
$GNGLL,3010.4619164,N,09630.6240859,W,200614.000,A,A*57
$GNRMC,200614.000,A,3010.4619164,N,09630.6240859,W,000.1,000.0,301223,,,A,V*1A
$GNVTG,000.0,T,,M,000.1,N,000.2,K,A*10
$GNZDA,200614.000,30,12,2023,00,00*4A
$PSTI,030,200614.000,A,3010.4619164,N,09630.6240859,W,95.221,0.02,-0.05,0.01,301223,A,0.000,0.000*13
$PSTI,032,200614.000,301223,V,,,,,,,,,,,*4B
$GPGGA,200615.000,3010.4619148,N,09630.6240859,W,1,15,0.8,95.219,M,-24.900,M,,0000*5B
$GNGSA,A,3,04,07,08,09,14,30,,,,,,,1.7,0.8,1.5,1*3F
$GNGSA,A,3,21,27,,,,,,,,,,,1.7,0.8,1.5,3*3F
$GNGSA,A,3,11,23,25,32,34,37,43,,,,,,1.7,0.8,1.5,4*3D
$GNGSA,A,3,,,,,,,,,,,,,1.7,0.8,1.5,6*3C
$GNGLL,3010.4619148,N,09630.6240859,W,200615.000,A,A*58
$GNRMC,200615.000,A,3010.4619148,N,09630.6240859,W,000.1,000.0,301223,,,A,V*15
$GNVTG,000.0,T,,M,000.1,N,000.2,K,A*10
$GNZDA,200615.000,30,12,2023,00,00*4B
$PSTI,030,200615.000,A,3010.4619148,N,09630.6240859,W,95.219,0.01,-0.05,0.01,301223,A,0.000,0.000*14
$PSTI,032,200615.000,301223,V,,,,,,,,,,,*4A
$GPGGA,200616.000,3010.4619131,N,09630.6240858,W,1,15,0.8,95.217,M,-24.900,M,,0000*59
$GNGSA,A,3,04,07,08,09,14,30,,,,,,,1.7,0.8,1.5,1*3F
$GNGSA,A,3,21,27,,,,,,,,,,,1.7,0.8,1.5,3*3F
$GNGSA,A,3,11,23,25,32,34,37,43,,,,,,1.7,0.8,1.5,4*3D
$GNGSA,A,3,,,,,,,,,,,,,1.7,0.8,1.5,6*3C
$GPGSV,3,1,10,09,67,217,48,08,65,092,48,07,51,330,50,04,38,164,31,1*63
$GPGSV,3,2,10,27,32,048,,30,24,308,31,14,21,254,38,21,13,129,,1*65
$GPGSV,3,3,10,02,11,140,,16,08,052,,1*6A
$GPGSV,2,1,05,09,67,217,39,08,65,092,42,04,38,164,21,30,24,308,33,8*6A
$GPGSV,2,2,05,14,21,254,37,8*59
$GAGSV,3,1,09,27,58,017,48,21,48,273,42,19,38,311,,07,33,163,,7*76
$GAGSV,3,2,09,15,12,100,,30,09,044,,13,05,148,,34,03,053,,7*7F
$GAGSV,3,3,09,20,00,000,43,7*4F
$GAGSV,1,1,03,27,58,017,42,21,48,273,38,20,00,000,06,1*48
$GBGSV,3,1,10,23,59,353,52,43,42,117,34,32,38,263,41,11,36,085,36,1*7E
$GBGSV,3,2,10,25,34,065,48,34,26,060,40,37,25,291,37,41,25,200,27,1*70
$GBGSV,3,3,10,28,14,177,,20,12,316,,1*7C
$GBGSV,2,1,07,23,59,353,43,43,42,117,26,32,38,263,28,25,34,065,42,5*79
$GBGSV,2,2,07,34,26,060,37,41,25,200,21,37,25,291,31,5*4C
$GNGLL,3010.4619131,N,09630.6240858,W,200616.000,A,A*54
$GNRMC,200616.000,A,3010.4619131,N,09630.6240858,W,000.1,000.0,301223,,,A,V*19
$GNVTG,000.0,T,,M,000.1,N,000.2,K,A*10
$GNZDA,200616.000,30,12,2023,00,00*48
$PSTI,030,200616.000,A,3010.4619131,N,09630.6240858,W,95.217,0.01,-0.04,0.01,301223,A,0.000,0.000*17
$PSTI,032,200616.000,301223,V,,,,,,,,,,,*49
$GPGGA,200617.000,3010.4619115,N,09630.6240857,W,1,15,0.8,95.215,M,-24.900,M,,0000*53
$GNGSA,A,3,04,07,08,09,14,30,,,,,,,1.7,0.8,1.5,1*3F
$GNGSA,A,3,21,27,,,,,,,,,,,1.7,0.8,1.5,3*3F
$GNGSA,A,3,11,23,25,32,34,37,43,,,,,,1.7,0.8,1.5,4*3D
$GNGSA,A,3,,,,,,,,,,,,,1.7,0.8,1.5,6*3C
$GNGLL,3010.4619115,N,09630.6240857,W,200617.000,A,A*5C
$GNRMC,200617.000,A,3010.4619115,N,09630.6240857,W,000.1,000.0,301223,,,A,V*11
$GNVTG,000.0,T,,M,000.1,N,000.2,K,A*10
$GNZDA,200617.000,30,12,2023,00,00*49
$PSTI,030,200617.000,A,3010.4619115,N,09630.6240857,W,95.215,0.01,-0.05,0.01,301223,A,0.000,0.000*1C
$PSTI,032,200617.000,301223,V,,,,,,,,,,,*48
$GPGGA,200618.000,3010.4619100,N,09630.6240856,W,1,15,0.8,95.213,M,-24.900,M,,0000*5F
$GNGSA,A,3,04,07,08,09,14,30,,,,,,,1.7,0.8,1.5,1*3F
$GNGSA,A,3,21,27,,,,,,,,,,,1.7,0.8,1.5,3*3F
$GNGSA,A,3,11,23,25,32,34,37,43,,,,,,1.7,0.8,1.5,4*3D
$GNGSA,A,3,,,,,,,,,,,,,1.7,0.8,1.5,6*3C
$GNGLL,3010.4619100,N,09630.6240856,W,200618.000,A,A*56
$GNRMC,200618.000,A,3010.4619100,N,09630.6240856,W,000.1,000.0,301223,,,A,V*1B
$GNVTG,000.0,T,,M,000.1,N,000.2,K,A*10
$GNZDA,200618.000,30,12,2023,00,00*46
$PSTI,030,200618.000,A,3010.4619100,N,09630.6240856,W,95.213,0.01,-0.04,0.01,301223,A,0.000,0.000*11
$PSTI,032,200618.000,301223,V,,,,,,,,,,,*47
$GPGGA,200619.000,3010.4619085,N,09630.6240854,W,1,15,0.8,95.211,M,-24.900,M,,0000*52
$GNGSA,A,3,04,07,08,09,14,30,,,,,,,1.7,0.8,1.5,1*3F
$GNGSA,A,3,21,27,,,,,,,,,,,1.7,0.8,1.5,3*3F
$GNGSA,A,3,11,23,25,32,34,37,43,,,,,,1.7,0.8,1.5,4*3D
$GNGSA,A,3,,,,,,,,,,,,,1.7,0.8,1.5,6*3C
$GPGSV,3,1,10,09,67,217,48,08,65,092,48,07,51,330,50,04,38,164,31,1*63
$GPGSV,3,2,10,27,32,048,,30,24,308,30,14,21,254,37,21,13,129,,1*6B
$GPGSV,3,3,10,02,11,140,,16,08,052,,1*6A
$GPGSV,2,1,05,09,67,217,39,08,65,092,42,04,38,164,21,30,24,308,33,8*6A
$GPGSV,2,2,05,14,21,254,37,8*59
$GAGSV,3,1,09,27,58,017,48,21,48,273,42,19,38,311,,07,33,163,,7*76
$GAGSV,3,2,09,15,12,100,,30,09,044,,13,05,148,,34,03,053,,7*7F
$GAGSV,3,3,09,20,00,000,43,7*4F
$GAGSV,1,1,03,27,58,017,42,21,48,273,38,20,00,000,11,1*4E
$GBGSV,3,1,10,23,59,353,52,43,42,117,34,32,38,263,41,11,36,085,37,1*7F
$GBGSV,3,2,10,25,34,065,47,34,26,060,40,37,25,291,37,41,25,200,28,1*70
$GBGSV,3,3,10,28,14,177,,20,12,316,,1*7C
$GBGSV,2,1,07,23,59,353,43,43,42,117,27,32,38,263,27,25,34,065,42,5*77
$GBGSV,2,2,07,34,26,060,37,41,25,200,21,37,25,291,31,5*4C
$GNGLL,3010.4619085,N,09630.6240854,W,200619.000,A,A*59
$GNRMC,200619.000,A,3010.4619085,N,09630.6240854,W,000.1,000.0,301223,,,A,V*14
$GNVTG,000.0,T,,M,000.1,N,000.2,K,A*10
$GNZDA,200619.000,30,12,2023,00,00*47
$PSTI,030,200619.000,A,3010.4619085,N,09630.6240854,W,95.211,0.01,-0.04,0.01,301223,A,0.000,0.000*1C
$PSTI,032,200619.000,301223,V,,,,,,,,,,,*46
$GPGGA,200620.000,3010.4619070,N,09630.6240853,W,1,15,0.8,95.209,M,-24.900,M,,0000*5C
$GNGSA,A,3,04,07,08,09,14,30,,,,,,,1.7,0.8,1.5,1*3F
$GNGSA,A,3,21,27,,,,,,,,,,,1.7,0.8,1.5,3*3F
$GNGSA,A,3,11,23,25,32,34,37,43,,,,,,1.7,0.8,1.5,4*3D
$GNGSA,A,3,,,,,,,,,,,,,1.7,0.8,1.5,6*3C
$GNGLL,3010.4619070,N,09630.6240853,W,200620.000,A,A*5E
$GNRMC,200620.000,A,3010.4619070,N,09630.6240853,W,000.1,000.0,301223,,,A,V*13
$GNVTG,000.0,T,,M,000.1,N,000.2,K,A*10
$GNZDA,200620.000,30,12,2023,00,00*4D
$PSTI,030,200620.000,A,3010.4619070,N,09630.6240853,W,95.209,0.01,-0.05,0.01,301223,A,0.000,0.000*13
$PSTI,032,200620.000,301223,V,,,,,,,,,,,*4C
$GPGGA,200621.000,3010.4619055,N,09630.6240851,W,1,15,0.8,95.208,M,-24.900,M,,0000*59
$GNGSA,A,3,04,07,08,09,14,30,,,,,,,1.7,0.8,1.5,1*3F
$GNGSA,A,3,21,27,,,,,,,,,,,1.7,0.8,1.5,3*3F
$GNGSA,A,3,11,23,25,32,34,37,43,,,,,,1.7,0.8,1.5,4*3D
$GNGSA,A,3,,,,,,,,,,,,,1.7,0.8,1.5,6*3C
$GNGLL,3010.4619055,N,09630.6240851,W,200621.000,A,A*5A
$GNRMC,200621.000,A,3010.4619055,N,09630.6240851,W,000.1,000.0,301223,,,A,V*17
$GNVTG,000.0,T,,M,000.1,N,000.2,K,A*10
$GNZDA,200621.000,30,12,2023,00,00*4C
$PSTI,030,200621.000,A,3010.4619055,N,09630.6240851,W,95.208,0.01,-0.04,0.01,301223,A,0.000,0.000*17
$PSTI,032,200621.000,301223,V,,,,,,,,,,,*4D
$GPGGA,200622.000,3010.4619040,N,09630.6240849,W,1,15,0.8,95.206,M,-24.900,M,,0000*59
$GNGSA,A,3,04,07,08,09,14,30,,,,,,,1.7,0.8,1.5,1*3F
$GNGSA,A,3,21,27,,,,,,,,,,,1.7,0.8,1.5,3*3F
$GNGSA,A,3,11,23,25,32,34,37,43,,,,,,1.7,0.8,1.5,4*3D
$GNGSA,A,3,,,,,,,,,,,,,1.7,0.8,1.5,6*3C
$GPGSV,3,1,10,09,67,216,48,08,65,090,48,07,51,330,49,04,38,164,31,1*68
$GPGSV,3,2,10,27,32,048,,30,24,308,30,14,21,254,37,21,13,129,,1*6B
$GPGSV,3,3,10,02,11,140,,16,08,052,,1*6A
$GPGSV,2,1,05,09,67,216,39,08,65,090,42,04,38,164,21,30,24,308,33,8*69
$GPGSV,2,2,05,14,21,254,36,8*58
$GAGSV,3,1,09,27,58,017,48,21,48,273,43,19,38,311,,07,33,163,,7*77
$GAGSV,3,2,09,15,12,100,,30,09,044,,13,05,148,,34,03,053,,7*7F
$GAGSV,3,3,09,20,00,000,43,7*4F
$GAGSV,1,1,03,27,58,017,42,21,48,273,38,20,00,000,13,1*4C
$GBGSV,3,1,10,23,59,353,52,43,42,117,33,32,38,263,41,11,36,085,37,1*78
$GBGSV,3,2,10,25,34,065,47,34,26,060,40,37,25,291,37,41,25,200,28,1*70
$GBGSV,3,3,10,28,14,177,,20,12,316,,1*7C
$GBGSV,2,1,07,23,59,353,43,43,42,117,28,32,38,263,28,25,34,065,42,5*77
$GBGSV,2,2,07,34,26,060,37,41,25,200,21,37,25,291,30,5*4D
$GNGLL,3010.4619040,N,09630.6240849,W,200622.000,A,A*54
$GNRMC,200622.000,A,3010.4619040,N,09630.6240849,W,000.1,000.0,301223,,,A,V*19
$GNVTG,000.0,T,,M,000.1,N,000.2,K,A*10
$GNZDA,200622.000,30,12,2023,00,00*4F
$PSTI,030,200622.000,A,3010.4619040,N,09630.6240849,W,95.206,0.01,-0.04,0.00,301223,A,0.000,0.000*16
$PSTI,032,200622.000,301223,V,,,,,,,,,,,*4E
$GPGGA,200623.000,3010.4619024,N,09630.6240848,W,1,15,0.8,95.204,M,-24.900,M,,0000*59
$GNGSA,A,3,04,07,08,09,14,30,,,,,,,1.7,0.8,1.5,1*3F
$GNGSA,A,3,21,27,,,,,,,,,,,1.7,0.8,1.5,3*3F
$GNGSA,A,3,11,23,25,32,34,37,43,,,,,,1.7,0.8,1.5,4*3D
$GNGSA,A,3,,,,,,,,,,,,,1.7,0.8,1.5,6*3C
$GNGLL,3010.4619024,N,09630.6240848,W,200623.000,A,A*56
$GNRMC,200623.000,A,3010.4619024,N,09630.6240848,W,000.1,000.0,301223,,,A,V*1B
$GNVTG,000.0,T,,M,000.1,N,000.2,K,A*10
$GNZDA,200623.000,30,12,2023,00,00*4E
$PSTI,030,200623.000,A,3010.4619024,N,09630.6240848,W,95.204,0.01,-0.04,0.01,301223,A,0.000,0.000*17
$PSTI,032,200623.000,301223,V,,,,,,,,,,,*4F
$GPGGA,200624.000,3010.4619009,N,09630.6240846,W,1,15,0.8,95.202,M,-24.900,M,,0000*59
$GNGSA,A,3,04,07,08,09,14,30,,,,,,,1.7,0.8,1.5,1*3F
$GNGSA,A,3,21,27,,,,,,,,,,,1.7,0.8,1.5,3*3F
$GNGSA,A,3,11,23,25,32,34,37,43,,,,,,1.7,0.8,1.5,4*3D
$GNGSA,A,3,,,,,,,,,,,,,1.7,0.8,1.5,6*3C
$GNGLL,3010.4619009,N,09630.6240846,W,200624.000,A,A*50
$GNRMC,200624.000,A,3010.4619009,N,09630.6240846,W,000.1,000.0,301223,,,A,V*1D
$GNVTG,000.0,T,,M,000.1,N,000.2,K,A*10
$GNZDA,200624.000,30,12,2023,00,00*49
$PSTI,030,200624.000,A,3010.4619009,N,09630.6240846,W,95.202,0.01,-0.04,0.01,301223,A,0.000,0.000*17
$PSTI,032,200624.000,301223,V,,,,,,,,,,,*48
$GPGGA,200625.000,3010.4618994,N,09630.6240844,W,1,15,0.8,95.200,M,-24.900,M,,0000*54
$GNGSA,A,3,04,07,08,09,14,30,,,,,,,1.7,0.8,1.5,1*3F
$GNGSA,A,3,21,27,,,,,,,,,,,1.7,0.8,1.5,3*3F
$GNGSA,A,3,11,23,25,32,34,37,43,,,,,,1.7,0.8,1.5,4*3D
$GNGSA,A,3,,,,,,,,,,,,,1.7,0.8,1.5,6*3C
$GPGSV,3,1,10,09,67,216,48,08,65,090,48,07,51,330,49,04,38,164,31,1*68
$GPGSV,3,2,10,27,32,048,,30,24,308,29,14,21,254,37,21,13,129,,1*63
$GPGSV,3,3,10,02,11,140,,16,08,052,,1*6A
$GPGSV,2,1,05,09,67,216,39,08,65,090,42,04,38,164,21,30,24,308,33,8*69
$GPGSV,2,2,05,14,21,254,37,8*59
$GAGSV,3,1,09,27,58,017,49,21,48,273,43,19,38,311,,07,33,163,,7*76
$GAGSV,3,2,09,15,12,100,,30,09,044,,13,05,148,,34,03,053,,7*7F
$GAGSV,3,3,09,20,00,000,43,7*4F
$GAGSV,1,1,03,27,58,017,42,21,48,273,38,20,00,000,10,1*4F
$GBGSV,3,1,10,23,59,353,52,43,42,117,33,32,38,263,40,11,36,085,38,1*76
$GBGSV,3,2,10,25,34,065,48,34,26,060,40,37,25,291,37,41,25,200,28,1*7F
$GBGSV,3,3,10,28,14,177,,20,12,316,,1*7C
$GBGSV,2,1,07,23,59,353,43,43,42,117,27,32,38,263,28,25,34,065,42,5*78
$GBGSV,2,2,07,34,26,060,37,41,25,200,21,37,25,291,29,5*45
$GNGLL,3010.4618994,N,09630.6240844,W,200625.000,A,A*5F
$GNRMC,200625.000,A,3010.4618994,N,09630.6240844,W,000.1,000.0,301223,,,A,V*12
$GNVTG,000.0,T,,M,000.1,N,000.2,K,A*10
$GNZDA,200625.000,30,12,2023,00,00*48
$PSTI,030,200625.000,A,3010.4618994,N,09630.6240844,W,95.200,0.01,-0.05,0.01,301223,A,0.000,0.000*1B
$PSTI,032,200625.000,301223,V,,,,,,,,,,,*49
$GPGGA,200626.000,3010.4619056,N,09630.6240777,W,1,15,0.8,95.214,M,-24.900,M,,0000*5B
$GNGSA,A,3,04,07,08,09,14,30,,,,,,,1.7,0.8,1.5,1*3F
$GNGSA,A,3,21,27,,,,,,,,,,,1.7,0.8,1.5,3*3F
$GNGSA,A,3,11,23,25,32,34,37,43,,,,,,1.7,0.8,1.5,4*3D
$GNGSA,A,3,,,,,,,,,,,,,1.7,0.8,1.5,6*3C
$GNGLL,3010.4619056,N,09630.6240777,W,200626.000,A,A*55
$GNRMC,200626.000,A,3010.4619056,N,09630.6240777,W,000.1,000.0,301223,,,A,V*18
$GNVTG,000.0,T,,M,000.1,N,000.1,K,A*13
$GNZDA,200626.000,30,12,2023,00,00*4B
$PSTI,030,200626.000,A,3010.4619056,N,09630.6240777,W,95.214,0.01,-0.03,0.01,301223,A,0.000,0.000*12
$PSTI,032,200626.000,301223,V,,,,,,,,,,,*4A
$GPGGA,200627.000,3010.4619042,N,09630.6240775,W,1,15,0.8,95.212,M,-24.900,M,,0000*5B
$GNGSA,A,3,04,07,08,09,14,30,,,,,,,1.7,0.8,1.5,1*3F
$GNGSA,A,3,21,27,,,,,,,,,,,1.7,0.8,1.5,3*3F
$GNGSA,A,3,11,23,25,32,34,37,43,,,,,,1.7,0.8,1.5,4*3D
$GNGSA,A,3,,,,,,,,,,,,,1.7,0.8,1.5,6*3C
$GNGLL,3010.4619042,N,09630.6240775,W,200627.000,A,A*53
$GNRMC,200627.000,A,3010.4619042,N,09630.6240775,W,000.1,000.0,301223,,,A,V*1E
$GNVTG,000.0,T,,M,000.1,N,000.2,K,A*10
$GNZDA,200627.000,30,12,2023,00,00*4A
$PSTI,030,200627.000,A,3010.4619042,N,09630.6240775,W,95.212,0.02,-0.05,0.01,301223,A,0.000,0.000*17
$PSTI,032,200627.000,301223,V,,,,,,,,,,,*4B
$GPGGA,200628.000,3010.4619102,N,09630.6240709,W,1,15,0.8,95.226,M,-24.900,M,,0000*5D
$GNGSA,A,3,04,07,08,09,14,30,,,,,,,1.7,0.8,1.5,1*3F
$GNGSA,A,3,21,27,,,,,,,,,,,1.7,0.8,1.5,3*3F
$GNGSA,A,3,11,23,25,32,34,37,43,,,,,,1.7,0.8,1.5,4*3D
$GNGSA,A,3,,,,,,,,,,,,,1.7,0.8,1.5,6*3C
$GPGSV,3,1,10,09,67,216,49,08,65,090,48,07,51,330,49,04,38,164,32,1*6A
$GPGSV,3,2,10,27,32,048,,30,24,308,30,14,22,255,36,21,13,129,,1*68
$GPGSV,3,3,10,02,11,140,,16,08,053,,1*6B
$GPGSV,2,1,05,09,67,216,39,08,65,090,42,04,38,164,20,30,24,308,34,8*6F
$GPGSV,2,2,05,14,22,255,36,8*5A
$GAGSV,3,1,09,27,58,017,49,21,48,273,43,19,38,311,,07,33,163,,7*76
$GAGSV,3,2,09,15,12,100,,30,09,044,,13,05,148,,34,03,053,,7*7F
$GAGSV,3,3,09,20,00,000,43,7*4F
$GAGSV,1,1,03,27,58,017,42,21,48,273,38,20,00,000,09,1*47
$GBGSV,3,1,10,23,59,353,52,43,42,117,32,32,38,263,40,11,36,085,38,1*77
$GBGSV,3,2,10,25,34,065,48,34,26,060,40,37,25,291,37,41,25,200,28,1*7F
$GBGSV,3,3,10,28,14,177,,20,12,316,,1*7C
$GBGSV,2,1,07,23,59,353,43,43,42,117,27,32,38,263,28,25,34,065,42,5*78
$GBGSV,2,2,07,34,26,060,37,41,25,200,21,37,25,291,29,5*45
$GNGLL,3010.4619102,N,09630.6240709,W,200628.000,A,A*52
$GNRMC,200628.000,A,3010.4619102,N,09630.6240709,W,000.1,000.0,301223,,,A,V*1F
$GNVTG,000.0,T,,M,000.1,N,000.2,K,A*10
$GNZDA,200628.000,30,12,2023,00,00*45
$PSTI,030,200628.000,A,3010.4619102,N,09630.6240709,W,95.226,0.01,-0.04,0.01,301223,A,0.000,0.000*13
$PSTI,032,200628.000,301223,V,,,,,,,,,,,*44
$GPGGA,200629.000,3010.4619088,N,09630.6240706,W,1,15,0.8,95.224,M,-24.900,M,,0000*52
$GNGSA,A,3,04,07,08,09,14,30,,,,,,,1.7,0.8,1.5,1*3F
$GNGSA,A,3,21,27,,,,,,,,,,,1.7,0.8,1.5,3*3F
$GNGSA,A,3,11,23,25,32,34,37,43,,,,,,1.7,0.8,1.5,4*3D
$GNGSA,A,3,,,,,,,,,,,,,1.7,0.8,1.5,6*3C
$GNGLL,3010.4619088,N,09630.6240706,W,200629.000,A,A*5F
$GNRMC,200629.000,A,3010.4619088,N,09630.6240706,W,000.1,000.0,301223,,,A,V*12
$GNVTG,000.0,T,,M,000.1,N,000.2,K,A*10
$GNZDA,200629.000,30,12,2023,00,00*44
$PSTI,030,200629.000,A,3010.4619088,N,09630.6240706,W,95.224,0.01,-0.05,0.01,301223,A,0.000,0.000*1D
$PSTI,032,200629.000,301223,V,,,,,,,,,,,*45
$GPGGA,200630.000,3010.4619147,N,09630.6240641,W,1,15,0.8,95.238,M,-24.900,M,,0000*57
$GNGSA,A,3,04,07,08,09,14,30,,,,,,,1.7,0.8,1.5,1*3F
$GNGSA,A,3,21,27,,,,,,,,,,,1.7,0.8,1.5,3*3F
$GNGSA,A,3,11,23,25,32,34,37,43,,,,,,1.7,0.8,1.5,4*3D
$GNGSA,A,3,,,,,,,,,,,,,1.7,0.8,1.5,6*3C
$GNGLL,3010.4619147,N,09630.6240641,W,200630.000,A,A*57
$GNRMC,200630.000,A,3010.4619147,N,09630.6240641,W,000.1,000.0,301223,,,A,V*1A
$GNVTG,000.0,T,,M,000.1,N,000.2,K,A*10
$GNZDA,200630.000,30,12,2023,00,00*4C
$PSTI,030,200630.000,A,3010.4619147,N,09630.6240641,W,95.238,0.01,-0.04,0.01,301223,A,0.000,0.000*19
$PSTI,032,200630.000,301223,V,,,,,,,,,,,*4D
$GPGGA,200631.000,3010.4619204,N,09630.6240578,W,1,15,0.8,95.251,M,-24.900,M,,0000*54
$GNGSA,A,3,04,07,08,09,14,30,,,,,,,1.7,0.8,1.5,1*3F
$GNGSA,A,3,21,27,,,,,,,,,,,1.7,0.8,1.5,3*3F
$GNGSA,A,3,11,23,25,32,34,37,43,,,,,,1.7,0.8,1.5,4*3D
$GNGSA,A,3,,,,,,,,,,,,,1.7,0.8,1.5,6*3C
$GPGSV,3,1,10,09,67,216,48,08,65,090,48,07,51,330,49,04,38,164,32,1*6B
$GPGSV,3,2,10,27,32,048,,30,24,308,30,14,22,255,35,21,13,129,,1*6B
$GPGSV,3,3,10,02,11,140,,16,08,053,,1*6B
$GPGSV,2,1,05,09,67,216,39,08,65,090,42,04,38,164,20,30,24,308,34,8*6F
$GPGSV,2,2,05,14,22,255,36,8*5A
$GAGSV,3,1,09,27,58,017,48,21,48,273,43,19,38,311,,07,33,163,,7*77
$GAGSV,3,2,09,15,12,100,,30,09,044,,13,05,148,,34,03,053,,7*7F
$GAGSV,3,3,09,20,00,000,43,7*4F
$GAGSV,1,1,03,27,58,017,42,21,48,273,38,20,00,000,08,1*46
$GBGSV,3,1,10,23,59,353,52,43,42,117,32,32,38,263,40,11,36,085,38,1*77
$GBGSV,3,2,10,25,34,065,48,34,26,060,40,37,25,291,37,41,25,200,29,1*7E
$GBGSV,3,3,10,28,14,177,,20,12,316,,1*7C
$GBGSV,2,1,07,23,59,353,43,43,42,117,27,32,38,263,28,25,34,065,42,5*78
$GBGSV,2,2,07,34,26,060,37,41,25,200,20,37,25,291,29,5*44
$GNGLL,3010.4619204,N,09630.6240578,W,200631.000,A,A*5B
$GNRMC,200631.000,A,3010.4619204,N,09630.6240578,W,000.1,000.0,301223,,,A,V*16
$GNVTG,000.0,T,,M,000.1,N,000.2,K,A*10
$GNZDA,200631.000,30,12,2023,00,00*4D
$PSTI,030,200631.000,A,3010.4619204,N,09630.6240578,W,95.251,0.01,-0.05,0.01,301223,A,0.000,0.000*1B
$PSTI,032,200631.000,301223,V,,,,,,,,,,,*4C
$GPGGA,200632.000,3010.4619263,N,09630.6240514,W,1,15,0.8,95.263,M,-24.900,M,,0000*5D
$GNGSA,A,3,04,07,08,09,14,30,,,,,,,1.7,0.8,1.5,1*3F
$GNGSA,A,3,21,27,,,,,,,,,,,1.7,0.8,1.5,3*3F
$GNGSA,A,3,11,23,25,32,34,37,43,,,,,,1.7,0.8,1.5,4*3D
$GNGSA,A,3,,,,,,,,,,,,,1.7,0.8,1.5,6*3C
$GNGLL,3010.4619263,N,09630.6240514,W,200632.000,A,A*53
$GNRMC,200632.000,A,3010.4619263,N,09630.6240514,W,000.1,000.0,301223,,,A,V*1E
$GNVTG,000.0,T,,M,000.1,N,000.2,K,A*10
$GNZDA,200632.000,30,12,2023,00,00*4E
$PSTI,030,200632.000,A,3010.4619263,N,09630.6240514,W,95.263,0.01,-0.04,0.01,301223,A,0.000,0.000*13
$PSTI,032,200632.000,301223,V,,,,,,,,,,,*4F
$GPGGA,200633.000,3010.4619318,N,09630.6240452,W,1,15,0.8,95.276,M,-24.900,M,,0000*56
$GNGSA,A,3,04,07,08,09,14,30,,,,,,,1.7,0.8,1.5,1*3F
$GNGSA,A,3,21,27,,,,,,,,,,,1.7,0.8,1.5,3*3F
$GNGSA,A,3,11,23,25,32,34,37,43,,,,,,1.7,0.8,1.5,4*3D
$GNGSA,A,3,,,,,,,,,,,,,1.7,0.8,1.5,6*3C
$GNGLL,3010.4619318,N,09630.6240452,W,200633.000,A,A*5C
$GNRMC,200633.000,A,3010.4619318,N,09630.6240452,W,000.1,000.0,301223,,,A,V*11
$GNVTG,000.0,T,,M,000.1,N,000.2,K,A*10
$GNZDA,200633.000,30,12,2023,00,00*4F
$PSTI,030,200633.000,A,3010.4619318,N,09630.6240452,W,95.276,0.01,-0.05,0.01,301223,A,0.000,0.000*19
$PSTI,032,200633.000,301223,V,,,,,,,,,,,*4E
$GPGGA,200634.000,3010.4619372,N,09630.6240392,W,1,15,0.8,95.289,M,-24.900,M,,0000*56
$GNGSA,A,3,04,07,08,09,14,30,,,,,,,1.7,0.8,1.5,1*3F
$GNGSA,A,3,21,27,,,,,,,,,,,1.7,0.8,1.5,3*3F
$GNGSA,A,3,11,23,25,32,34,37,43,,,,,,1.7,0.8,1.5,4*3D
$GNGSA,A,3,,,,,,,,,,,,,1.7,0.8,1.5,6*3C
$GPGSV,3,1,10,09,67,216,48,08,65,090,49,07,51,330,49,04,38,164,33,1*6B
$GPGSV,3,2,10,27,32,048,,30,24,308,28,14,22,255,34,21,13,129,,1*63
$GPGSV,3,3,10,02,11,140,,196,00,000,25,1*5B
$GPGSV,2,1,05,09,67,216,39,08,65,090,42,04,38,164,19,30,24,308,34,8*65
$GPGSV,2,2,05,14,22,255,36,8*5A
$GAGSV,3,1,09,27,58,017,48,21,48,273,43,19,38,311,,07,33,163,,7*77
$GAGSV,3,2,09,15,12,100,,30,09,044,,13,05,148,,34,03,053,,7*7F
$GAGSV,3,3,09,20,00,000,43,7*4F
$GAGSV,1,1,03,27,58,017,42,21,48,273,38,20,00,000,05,1*4B
$GBGSV,3,1,10,23,59,353,52,43,42,117,31,32,38,263,39,11,36,085,38,1*7A
$GBGSV,3,2,10,25,34,065,48,34,26,060,40,37,25,291,37,41,25,200,29,1*7E
$GBGSV,3,3,10,28,14,177,,20,12,316,,1*7C
$GBGSV,2,1,07,23,59,353,43,43,42,117,28,32,38,263,28,25,34,065,42,5*77
$GBGSV,2,2,07,34,26,060,37,41,25,200,19,37,25,291,28,5*4F
$GNGLL,3010.4619372,N,09630.6240392,W,200634.000,A,A*5C
$GNRMC,200634.000,A,3010.4619372,N,09630.6240392,W,000.1,000.0,301223,,,A,V*11
$GNVTG,000.0,T,,M,000.1,N,000.2,K,A*10
$GNZDA,200634.000,30,12,2023,00,00*48
$PSTI,030,200634.000,A,3010.4619372,N,09630.6240392,W,95.289,0.01,-0.04,0.01,301223,A,0.000,0.000*18
$PSTI,032,200634.000,301223,V,,,,,,,,,,,*49
$GPGGA,200635.000,3010.4619426,N,09630.6240331,W,1,15,0.8,95.301,M,-24.900,M,,0000*59
$GNGSA,A,3,04,07,08,09,14,30,,,,,,,1.7,0.8,1.5,1*3F
$GNGSA,A,3,21,27,,,,,,,,,,,1.7,0.8,1.5,3*3F
$GNGSA,A,3,11,23,25,32,34,37,43,,,,,,1.7,0.8,1.5,4*3D
$GNGSA,A,3,,,,,,,,,,,,,1.7,0.8,1.5,6*3C
$GNGLL,3010.4619426,N,09630.6240331,W,200635.000,A,A*52
$GNRMC,200635.000,A,3010.4619426,N,09630.6240331,W,000.1,000.0,301223,,,A,V*1F
$GNVTG,000.0,T,,M,000.1,N,000.2,K,A*10
$GNZDA,200635.000,30,12,2023,00,00*49
$PSTI,030,200635.000,A,3010.4619426,N,09630.6240331,W,95.301,0.01,-0.05,0.01,301223,A,0.000,0.000*16
$PSTI,032,200635.000,301223,V,,,,,,,,,,,*48
$GPGGA,200636.000,3010.4619482,N,09630.6240269,W,1,15,0.8,95.313,M,-24.900,M,,0000*5B
$GNGSA,A,3,04,07,08,09,14,30,,,,,,,1.7,0.8,1.5,1*3F
$GNGSA,A,3,21,27,,,,,,,,,,,1.7,0.8,1.5,3*3F
$GNGSA,A,3,11,23,25,32,34,37,43,,,,,,1.7,0.8,1.5,4*3D
$GNGSA,A,3,,,,,,,,,,,,,1.7,0.8,1.5,6*3C
$GNGLL,3010.4619482,N,09630.6240269,W,200636.000,A,A*53
$GNRMC,200636.000,A,3010.4619482,N,09630.6240269,W,000.1,000.0,301223,,,A,V*1E
$GNVTG,000.0,T,,M,000.1,N,000.2,K,A*10
$GNZDA,200636.000,30,12,2023,00,00*4A
$PSTI,030,200636.000,A,3010.4619482,N,09630.6240269,W,95.313,0.01,-0.05,0.01,301223,A,0.000,0.000*14
$PSTI,032,200636.000,301223,V,,,,,,,,,,,*4B
$GPGGA,200637.000,3010.4619537,N,09630.6240208,W,1,15,0.8,95.325,M,-24.900,M,,0000*57
$GNGSA,A,3,04,07,08,09,14,30,,,,,,,1.7,0.8,1.5,1*3F
$GNGSA,A,3,21,27,,,,,,,,,,,1.7,0.8,1.5,3*3F
$GNGSA,A,3,11,23,25,32,34,37,43,,,,,,1.7,0.8,1.5,4*3D
$GNGSA,A,3,,,,,,,,,,,,,1.7,0.8,1.5,6*3C
$GPGSV,3,1,10,09,67,216,48,08,65,090,49,07,51,330,49,04,38,164,33,1*6B
$GPGSV,3,2,10,27,32,048,,30,24,308,28,14,22,255,33,21,13,129,,1*64
$GPGSV,3,3,10,02,11,140,,16,08,053,,1*6B
$GPGSV,2,1,05,09,67,216,39,08,65,090,42,04,38,164,19,30,24,308,34,8*65
$GPGSV,2,2,05,14,22,255,36,8*5A
$GAGSV,3,1,09,27,58,017,48,21,48,273,43,19,38,311,,07,33,163,,7*77
$GAGSV,3,2,09,15,12,100,,30,09,044,,13,05,148,,34,03,053,,7*7F
$GAGSV,3,3,09,20,00,000,43,7*4F
$GAGSV,1,1,03,27,58,017,42,21,48,273,38,20,00,000,08,1*46
$GBGSV,3,1,10,23,59,353,52,43,42,117,31,32,38,263,39,11,36,085,38,1*7A
$GBGSV,3,2,10,25,34,065,47,34,26,060,40,37,25,291,37,41,25,200,29,1*71
$GBGSV,3,3,10,28,14,177,,20,12,316,,1*7C
$GBGSV,2,1,07,23,59,353,43,43,42,117,27,32,38,263,29,25,34,065,42,5*79
$GBGSV,2,2,07,34,26,060,37,41,25,200,19,37,25,291,28,5*4F
$GNGLL,3010.4619537,N,09630.6240208,W,200637.000,A,A*5A
$GNRMC,200637.000,A,3010.4619537,N,09630.6240208,W,000.1,000.0,301223,,,A,V*17
$GNVTG,000.0,T,,M,000.1,N,000.2,K,A*10
$GNZDA,200637.000,30,12,2023,00,00*4B
$PSTI,030,200637.000,A,3010.4619537,N,09630.6240208,W,95.325,0.01,-0.04,0.01,301223,A,0.000,0.000*19
$PSTI,032,200637.000,301223,V,,,,,,,,,,,*4A
$GPGGA,200638.000,3010.4619588,N,09630.6240150,W,1,15,0.8,95.337,M,-24.900,M,,0000*51
$GNGSA,A,3,04,07,08,09,14,30,,,,,,,1.7,0.8,1.5,1*3F
$GNGSA,A,3,21,27,,,,,,,,,,,1.7,0.8,1.5,3*3F
$GNGSA,A,3,11,23,25,32,34,37,43,,,,,,1.7,0.8,1.5,4*3D
$GNGSA,A,3,,,,,,,,,,,,,1.7,0.8,1.5,6*3C
$GNGLL,3010.4619588,N,09630.6240150,W,200638.000,A,A*5F
$GNRMC,200638.000,A,3010.4619588,N,09630.6240150,W,000.1,000.0,301223,,,A,V*12
$GNVTG,000.0,T,,M,000.1,N,000.2,K,A*10
$GNZDA,200638.000,30,12,2023,00,00*44
$PSTI,030,200638.000,A,3010.4619588,N,09630.6240150,W,95.337,0.01,-0.05,0.01,301223,A,0.000,0.000*1E
$PSTI,032,200638.000,301223,V,,,,,,,,,,,*45
$GPGGA,200639.000,3010.4619639,N,09630.6240091,W,1,15,0.8,95.349,M,-24.900,M,,0000*5C
$GNGSA,A,3,04,07,08,09,14,30,,,,,,,1.7,0.8,1.5,1*3F
$GNGSA,A,3,21,27,,,,,,,,,,,1.7,0.8,1.5,3*3F
$GNGSA,A,3,11,23,25,32,34,37,43,,,,,,1.7,0.8,1.5,4*3D
$GNGSA,A,3,,,,,,,,,,,,,1.7,0.8,1.5,6*3C
$GNGLL,3010.4619639,N,09630.6240091,W,200639.000,A,A*5B
$GNRMC,200639.000,A,3010.4619639,N,09630.6240091,W,000.1,000.0,301223,,,A,V*16
$GNVTG,000.0,T,,M,000.1,N,000.1,K,A*13
$GNZDA,200639.000,30,12,2023,00,00*45
$PSTI,030,200639.000,A,3010.4619639,N,09630.6240091,W,95.349,0.01,-0.04,0.01,301223,A,0.000,0.000*12
$PSTI,032,200639.000,301223,V,,,,,,,,,,,*44
$GPGGA,200640.000,3010.4619692,N,09630.6240032,W,1,15,0.8,95.360,M,-24.900,M,,0000*51
$GNGSA,A,3,04,07,08,09,14,30,,,,,,,1.7,0.8,1.5,1*3F
$GNGSA,A,3,21,27,,,,,,,,,,,1.7,0.8,1.5,3*3F
$GNGSA,A,3,11,23,25,32,34,37,43,,,,,,1.7,0.8,1.5,4*3D
$GNGSA,A,3,,,,,,,,,,,,,1.7,0.8,1.5,6*3C
$GPGSV,3,1,10,09,67,216,48,08,65,090,49,07,51,330,49,04,38,164,33,1*6B
$GPGSV,3,2,10,27,31,048,,30,24,308,27,14,22,255,33,21,13,129,,1*68
$GPGSV,3,3,10,02,11,140,,16,08,053,,1*6B
$GPGSV,2,1,05,09,67,216,39,08,65,090,42,04,38,164,20,30,24,308,34,8*6F
$GPGSV,2,2,05,14,22,255,36,8*5A
$GAGSV,3,1,09,27,58,017,48,21,48,273,43,19,38,311,,07,33,163,,7*77
$GAGSV,3,2,09,15,12,100,,30,09,044,,13,05,148,,34,03,053,,7*7F
$GAGSV,3,3,09,20,00,000,43,7*4F
$GAGSV,1,1,03,27,58,017,42,21,48,273,38,20,00,000,07,1*49
$GBGSV,3,1,10,23,59,353,52,43,42,117,31,32,38,263,39,11,36,085,38,1*7A
$GBGSV,3,2,10,25,34,065,48,34,26,060,40,37,25,291,36,41,25,200,30,1*77
$GBGSV,3,3,10,28,14,177,,20,12,316,,1*7C
$GBGSV,2,1,07,23,59,353,43,43,42,117,28,32,38,263,28,25,34,065,42,5*77
$GBGSV,2,2,07,34,26,060,37,41,25,200,19,37,25,291,28,5*4F
$GNGLL,3010.4619692,N,09630.6240032,W,200640.000,A,A*5D
$GNRMC,200640.000,A,3010.4619692,N,09630.6240032,W,000.1,000.0,301223,,,A,V*10
$GNVTG,000.0,T,,M,000.1,N,000.2,K,A*10
$GNZDA,200640.000,30,12,2023,00,00*4B
$PSTI,030,200640.000,A,3010.4619692,N,09630.6240032,W,95.360,0.01,-0.05,0.01,301223,A,0.000,0.000*1E
$PSTI,032,200640.000,301223,V,,,,,,,,,,,*4A
$GPGGA,200641.000,3010.4619741,N,09630.6239975,W,1,15,0.8,95.372,M,-24.900,M,,0000*58
$GNGSA,A,3,04,07,08,09,14,30,,,,,,,1.7,0.8,1.5,1*3F
$GNGSA,A,3,21,27,,,,,,,,,,,1.7,0.8,1.5,3*3F
$GNGSA,A,3,11,23,25,32,34,37,43,,,,,,1.7,0.8,1.5,4*3D
$GNGSA,A,3,,,,,,,,,,,,,1.7,0.8,1.5,6*3C
$GNGLL,3010.4619741,N,09630.6239975,W,200641.000,A,A*57
$GNRMC,200641.000,A,3010.4619741,N,09630.6239975,W,000.1,000.0,301223,,,A,V*1A
$GNVTG,000.0,T,,M,000.1,N,000.2,K,A*10
$GNZDA,200641.000,30,12,2023,00,00*4A
$PSTI,030,200641.000,A,3010.4619741,N,09630.6239975,W,95.372,0.01,-0.05,0.01,301223,A,0.000,0.000*17
$PSTI,032,200641.000,301223,V,,,,,,,,,,,*4B
$GPGGA,200642.000,3010.4619790,N,09630.6239918,W,1,15,0.8,95.383,M,-24.900,M,,0000*52
$GNGSA,A,3,04,07,08,09,14,30,,,,,,,1.7,0.8,1.5,1*3F
$GNGSA,A,3,21,27,,,,,,,,,,,1.7,0.8,1.5,3*3F
$GNGSA,A,3,11,23,25,32,34,37,43,,,,,,1.7,0.8,1.5,4*3D
$GNGSA,A,3,,,,,,,,,,,,,1.7,0.8,1.5,6*3C
$GNGLL,3010.4619790,N,09630.6239918,W,200642.000,A,A*53
$GNRMC,200642.000,A,3010.4619790,N,09630.6239918,W,000.1,000.0,301223,,,A,V*1E
$GNVTG,000.0,T,,M,000.1,N,000.1,K,A*13
$GNZDA,200642.000,30,12,2023,00,00*49
$PSTI,030,200642.000,A,3010.4619790,N,09630.6239918,W,95.383,0.01,-0.04,0.01,301223,A,0.000,0.000*1C
$PSTI,032,200642.000,301223,V,,,,,,,,,,,*48
$GPGGA,200643.000,3010.4619841,N,09630.6239860,W,1,15,0.8,95.394,M,-24.900,M,,0000*58
$GNGSA,A,3,04,07,08,09,14,30,,,,,,,1.7,0.8,1.5,1*3F
$GNGSA,A,3,21,27,,,,,,,,,,,1.7,0.8,1.5,3*3F
$GNGSA,A,3,11,23,25,32,34,37,43,,,,,,1.7,0.8,1.5,4*3D
$GNGSA,A,3,,,,,,,,,,,,,1.7,0.8,1.5,6*3C
$GPGSV,3,1,10,09,67,216,48,08,65,090,49,07,51,330,48,04,38,164,33,1*6A
$GPGSV,3,2,10,27,31,048,,30,24,308,25,14,22,255,32,21,13,129,,1*6B
$GPGSV,3,3,10,02,11,140,,16,08,053,,1*6B
$GPGSV,2,1,05,09,67,216,39,08,65,090,42,04,38,164,19,30,24,308,34,8*65
$GPGSV,2,2,05,14,22,255,36,8*5A
$GAGSV,3,1,09,27,58,017,48,21,48,273,43,19,38,311,,07,33,163,,7*77
$GAGSV,3,2,09,15,12,100,,30,09,044,,13,05,148,,34,03,053,,7*7F
$GAGSV,3,3,09,20,00,000,43,7*4F
$GAGSV,1,1,03,27,58,017,42,21,48,273,38,20,00,000,06,1*48
$GBGSV,3,1,10,23,59,353,52,43,42,117,31,32,38,263,39,11,36,085,38,1*7A
$GBGSV,3,2,10,25,34,065,48,34,26,060,40,37,25,291,36,41,25,200,29,1*7F
$GBGSV,3,3,10,28,14,177,,20,12,316,,1*7C
$GBGSV,2,1,07,23,59,353,43,43,42,117,28,32,38,263,28,25,34,065,42,5*77
$GBGSV,2,2,07,34,26,060,37,41,25,200,18,37,25,291,28,5*4E
$GNGLL,3010.4619841,N,09630.6239860,W,200643.000,A,A*5F
$GNRMC,200643.000,A,3010.4619841,N,09630.6239860,W,000.1,000.0,301223,,,A,V*12
$GNVTG,000.0,T,,M,000.1,N,000.2,K,A*10
$GNZDA,200643.000,30,12,2023,00,00*48
$PSTI,030,200643.000,A,3010.4619841,N,09630.6239860,W,95.394,0.02,-0.05,0.01,301223,A,0.000,0.000*14
$PSTI,032,200643.000,301223,V,,,,,,,,,,,*49
$GPGGA,200644.000,3010.4619891,N,09630.6239803,W,1,15,0.8,95.405,M,-24.900,M,,0000*58
$GNGSA,A,3,04,07,08,09,14,30,,,,,,,1.7,0.8,1.5,1*3F
$GNGSA,A,3,21,27,,,,,,,,,,,1.7,0.8,1.5,3*3F
$GNGSA,A,3,11,23,25,32,34,37,43,,,,,,1.7,0.8,1.5,4*3D
$GNGSA,A,3,,,,,,,,,,,,,1.7,0.8,1.5,6*3C
$GNGLL,3010.4619891,N,09630.6239803,W,200644.000,A,A*50
$GNRMC,200644.000,A,3010.4619891,N,09630.6239803,W,000.1,000.0,301223,,,A,V*1D
$GNVTG,000.0,T,,M,000.1,N,000.2,K,A*10
$GNZDA,200644.000,30,12,2023,00,00*4F
$PSTI,030,200644.000,A,3010.4619891,N,09630.6239803,W,95.405,0.01,-0.04,0.00,301223,A,0.000,0.000*17
$PSTI,032,200644.000,301223,V,,,,,,,,,,,*4E
$GPGGA,200645.000,3010.4619937,N,09630.6239749,W,1,15,0.8,95.416,M,-24.900,M,,0000*57
$GNGSA,A,3,04,07,08,09,14,30,,,,,,,1.7,0.8,1.5,1*3F
$GNGSA,A,3,21,27,,,,,,,,,,,1.7,0.8,1.5,3*3F
$GNGSA,A,3,11,23,25,32,34,37,43,,,,,,1.7,0.8,1.5,4*3D
$GNGSA,A,3,,,,,,,,,,,,,1.7,0.8,1.5,6*3C
$GNGLL,3010.4619937,N,09630.6239749,W,200645.000,A,A*5D
$GNRMC,200645.000,A,3010.4619937,N,09630.6239749,W,000.1,000.0,301223,,,A,V*10
$GNVTG,000.0,T,,M,000.1,N,000.2,K,A*10
$GNZDA,200645.000,30,12,2023,00,00*4E
$PSTI,030,200645.000,A,3010.4619937,N,09630.6239749,W,95.416,0.02,-0.05,0.01,301223,A,0.000,0.000*1B
$PSTI,032,200645.000,301223,V,,,,,,,,,,,*4F
$GPGGA,200646.000,3010.4619983,N,09630.6239695,W,1,15,0.8,95.426,M,-24.900,M,,0000*58
$GNGSA,A,3,04,07,08,09,14,30,,,,,,,1.7,0.8,1.5,1*3F
$GNGSA,A,3,21,27,,,,,,,,,,,1.7,0.8,1.5,3*3F
$GNGSA,A,3,11,23,25,32,34,37,43,,,,,,1.7,0.8,1.5,4*3D
$GNGSA,A,3,,,,,,,,,,,,,1.7,0.8,1.5,6*3C
$GPGSV,3,1,10,09,67,216,48,08,65,090,49,07,51,330,48,04,38,164,33,1*6A
$GPGSV,3,2,10,27,31,048,,30,24,308,25,14,22,255,31,21,13,129,,1*68
$GPGSV,3,3,10,02,11,140,,16,08,053,,1*6B
$GPGSV,2,1,05,09,67,216,39,08,65,090,42,04,38,164,19,30,24,308,35,8*64
$GPGSV,2,2,05,14,22,255,36,8*5A
$GAGSV,3,1,09,27,58,017,48,21,48,273,43,19,38,311,,07,33,163,,7*77
$GAGSV,3,2,09,15,12,100,,30,09,044,,13,05,148,,34,03,053,,7*7F
$GAGSV,3,3,09,20,00,000,42,7*4E
$GAGSV,1,1,03,27,58,017,42,21,48,273,38,20,00,000,08,1*46
$GBGSV,3,1,10,23,59,353,52,43,42,117,31,32,38,263,38,11,36,085,38,1*7B
$GBGSV,3,2,10,25,34,065,48,34,26,060,40,37,25,291,36,41,25,200,29,1*7F
$GBGSV,3,3,10,28,14,177,,20,12,316,,1*7C
$GBGSV,2,1,07,23,59,353,43,43,42,117,27,32,38,263,29,25,34,065,42,5*79
$GBGSV,2,2,07,34,26,060,37,41,25,200,18,37,25,291,27,5*41
$GNGLL,3010.4619983,N,09630.6239695,W,200646.000,A,A*51
$GNRMC,200646.000,A,3010.4619983,N,09630.6239695,W,000.1,000.0,301223,,,A,V*1C
$GNVTG,000.0,T,,M,000.1,N,000.2,K,A*10
$GNZDA,200646.000,30,12,2023,00,00*4D
$PSTI,030,200646.000,A,3010.4619983,N,09630.6239695,W,95.426,0.01,-0.05,0.01,301223,A,0.000,0.000*17
$PSTI,032,200646.000,301223,V,,,,,,,,,,,*4C
$GPGGA,200647.000,3010.4620031,N,09630.6239639,W,1,15,0.8,95.437,M,-24.900,M,,0000*55
$GNGSA,A,3,04,07,08,09,14,30,,,,,,,1.7,0.8,1.5,1*3F
$GNGSA,A,3,21,27,,,,,,,,,,,1.7,0.8,1.5,3*3F
$GNGSA,A,3,11,23,25,32,34,37,43,,,,,,1.7,0.8,1.5,4*3D
$GNGSA,A,3,,,,,,,,,,,,,1.7,0.8,1.5,6*3C
$GNGLL,3010.4620031,N,09630.6239639,W,200647.000,A,A*5C
$GNRMC,200647.000,A,3010.4620031,N,09630.6239639,W,000.1,000.0,301223,,,A,V*11
$GNVTG,000.0,T,,M,000.1,N,000.2,K,A*10
$GNZDA,200647.000,30,12,2023,00,00*4C
$PSTI,030,200647.000,A,3010.4620031,N,09630.6239639,W,95.437,0.01,-0.04,0.02,301223,A,0.000,0.000*18
$PSTI,032,200647.000,301223,V,,,,,,,,,,,*4D
$GPGGA,200648.000,3010.4620078,N,09630.6239585,W,1,15,0.8,95.447,M,-24.900,M,,0000*54
$GNGSA,A,3,04,07,08,09,14,30,,,,,,,1.7,0.8,1.5,1*3F
$GNGSA,A,3,21,27,,,,,,,,,,,1.7,0.8,1.5,3*3F
$GNGSA,A,3,11,23,25,32,34,37,43,,,,,,1.7,0.8,1.5,4*3D
$GNGSA,A,3,,,,,,,,,,,,,1.7,0.8,1.5,6*3C
$GNGLL,3010.4620078,N,09630.6239585,W,200648.000,A,A*5A
$GNRMC,200648.000,A,3010.4620078,N,09630.6239585,W,000.1,000.0,301223,,,A,V*17
$GNVTG,000.0,T,,M,000.1,N,000.2,K,A*10
$GNZDA,200648.000,30,12,2023,00,00*43
$PSTI,030,200648.000,A,3010.4620078,N,09630.6239585,W,95.447,0.01,-0.05,0.02,301223,A,0.000,0.000*18
$PSTI,032,200648.000,301223,V,,,,,,,,,,,*42
$GPGGA,200649.000,3010.4620125,N,09630.6239531,W,1,15,0.8,95.458,M,-24.900,M,,0000*5D
$GNGSA,A,3,04,07,08,09,14,30,,,,,,,1.7,0.8,1.5,1*3F
$GNGSA,A,3,21,27,,,,,,,,,,,1.7,0.8,1.5,3*3F
$GNGSA,A,3,11,23,25,32,34,37,43,,,,,,1.7,0.8,1.5,4*3D
$GNGSA,A,3,,,,,,,,,,,,,1.7,0.8,1.5,6*3C
$GPGSV,3,1,10,09,67,216,48,08,65,090,49,07,51,330,48,04,38,164,33,1*6A
$GPGSV,3,2,10,27,31,048,,30,24,308,25,14,22,255,29,21,13,129,,1*61
$GPGSV,3,3,10,02,11,140,,16,08,053,,1*6B
$GPGSV,2,1,05,09,67,216,39,08,65,090,42,04,38,164,19,30,24,308,35,8*64
$GPGSV,2,2,05,14,22,255,36,8*5A
$GAGSV,3,1,09,27,58,017,48,21,48,273,43,19,38,311,,07,33,163,,7*77
$GAGSV,3,2,09,15,12,100,,30,09,044,,13,05,148,,34,03,053,,7*7F
$GAGSV,3,3,09,20,00,000,42,7*4E
$GAGSV,1,1,03,27,58,017,42,21,48,273,38,20,00,000,06,1*48
$GBGSV,3,1,10,23,59,353,52,43,42,117,31,32,38,263,38,11,36,085,38,1*7B
$GBGSV,3,2,10,25,34,065,48,34,26,060,40,37,25,291,35,41,25,200,30,1*74
$GBGSV,3,3,10,28,14,177,,20,12,316,,1*7C
$GBGSV,2,1,07,23,59,353,43,43,42,117,28,32,38,263,29,25,34,065,42,5*76
$GBGSV,2,2,07,34,26,060,37,41,25,200,17,37,25,291,26,5*4F
$GNGLL,3010.4620125,N,09630.6239531,W,200649.000,A,A*5D
$GNRMC,200649.000,A,3010.4620125,N,09630.6239531,W,000.1,000.0,301223,,,A,V*10
$GNVTG,000.0,T,,M,000.1,N,000.2,K,A*10
$GNZDA,200649.000,30,12,2023,00,00*42
$PSTI,030,200649.000,A,3010.4620125,N,09630.6239531,W,95.458,0.02,-0.06,0.01,301223,A,0.000,0.000*12
$PSTI,032,200649.000,301223,V,,,,,,,,,,,*43
$GPGGA,200650.000,3010.4620171,N,09630.6239477,W,1,15,0.8,95.468,M,-24.900,M,,0000*54
$GNGSA,A,3,04,07,08,09,14,30,,,,,,,1.7,0.8,1.5,1*3F
$GNGSA,A,3,21,27,,,,,,,,,,,1.7,0.8,1.5,3*3F
$GNGSA,A,3,11,23,25,32,34,37,43,,,,,,1.7,0.8,1.5,4*3D
$GNGSA,A,3,,,,,,,,,,,,,1.7,0.8,1.5,6*3C
$GNGLL,3010.4620171,N,09630.6239477,W,200650.000,A,A*57
$GNRMC,200650.000,A,3010.4620171,N,09630.6239477,W,000.1,000.0,301223,,,A,V*1A
$GNVTG,000.0,T,,M,000.1,N,000.2,K,A*10
$GNZDA,200650.000,30,12,2023,00,00*4A
$PSTI,030,200650.000,A,3010.4620171,N,09630.6239477,W,95.468,0.01,-0.04,0.01,301223,A,0.000,0.000*1A
$PSTI,032,200650.000,301223,V,,,,,,,,,,,*4B
$GPGGA,200651.000,3010.4620217,N,09630.6239423,W,1,15,0.8,95.478,M,-24.900,M,,0000*56
$GNGSA,A,3,04,07,08,09,14,30,,,,,,,1.7,0.8,1.5,1*3F
$GNGSA,A,3,21,27,,,,,,,,,,,1.7,0.8,1.5,3*3F
$GNGSA,A,3,11,23,25,32,34,37,43,,,,,,1.7,0.8,1.5,4*3D
$GNGSA,A,3,,,,,,,,,,,,,1.7,0.8,1.5,6*3C
$GNGLL,3010.4620217,N,09630.6239423,W,200651.000,A,A*54
$GNRMC,200651.000,A,3010.4620217,N,09630.6239423,W,000.1,000.0,301223,,,A,V*19
$GNVTG,000.0,T,,M,000.1,N,000.2,K,A*10
$GNZDA,200651.000,30,12,2023,00,00*4B
$PSTI,030,200651.000,A,3010.4620217,N,09630.6239423,W,95.478,0.01,-0.05,0.01,301223,A,0.000,0.000*19
$PSTI,032,200651.000,301223,V,,,,,,,,,,,*4A
$GPGGA,200652.000,3010.4620259,N,09630.6239372,W,1,15,0.8,95.488,M,-24.900,M,,0000*53
$GNGSA,A,3,04,07,08,09,14,30,,,,,,,1.7,0.8,1.5,1*3F
$GNGSA,A,3,21,27,,,,,,,,,,,1.7,0.8,1.5,3*3F
$GNGSA,A,3,11,23,25,32,34,37,43,,,,,,1.7,0.8,1.5,4*3D
$GNGSA,A,3,,,,,,,,,,,,,1.7,0.8,1.5,6*3C
$GPGSV,3,1,10,09,67,216,48,08,65,090,49,07,51,330,48,04,38,164,32,1*6B
$GPGSV,3,2,10,27,31,048,,30,24,308,26,14,22,255,27,21,13,129,,1*6C
$GPGSV,3,3,10,02,11,140,,16,08,053,,1*6B
$GPGSV,2,1,05,09,67,216,39,08,65,090,41,04,38,164,19,30,24,308,35,8*67
$GPGSV,2,2,05,14,22,255,36,8*5A
$GAGSV,3,1,09,27,58,017,48,21,48,273,43,19,38,311,,07,33,163,,7*77
$GAGSV,3,2,09,15,12,100,,30,09,044,,13,05,148,,34,03,053,,7*7F
$GAGSV,3,3,09,20,00,000,43,7*4F
$GAGSV,1,1,03,27,58,017,42,21,48,273,37,20,00,000,08,1*49
$GBGSV,3,1,10,23,59,353,52,43,42,117,30,32,38,263,38,11,36,085,38,1*7A
$GBGSV,3,2,10,25,34,065,48,34,26,060,40,37,25,291,35,41,25,200,29,1*7C
$GBGSV,3,3,10,28,14,177,,20,12,316,,1*7C
$GBGSV,2,1,07,23,59,353,43,43,42,117,28,32,38,263,28,25,34,065,42,5*77
$GBGSV,2,2,07,34,26,060,37,41,25,200,16,37,25,291,26,5*4E
$GNGLL,3010.4620259,N,09630.6239372,W,200652.000,A,A*5E
$GNRMC,200652.000,A,3010.4620259,N,09630.6239372,W,000.1,000.0,301223,,,A,V*13
$GNVTG,000.0,T,,M,000.1,N,000.2,K,A*10
$GNZDA,200652.000,30,12,2023,00,00*48
$PSTI,030,200652.000,A,3010.4620259,N,09630.6239372,W,95.488,0.01,-0.05,0.01,301223,A,0.000,0.000*1C
$PSTI,032,200652.000,301223,V,,,,,,,,,,,*49
$GPGGA,200653.000,3010.4620249,N,09630.6239366,W,1,15,0.8,95.486,M,-24.900,M,,0000*58
$GNGSA,A,3,04,07,08,09,14,30,,,,,,,1.7,0.8,1.5,1*3F
$GNGSA,A,3,21,27,,,,,,,,,,,1.7,0.8,1.5,3*3F
$GNGSA,A,3,11,23,25,32,34,37,43,,,,,,1.7,0.8,1.5,4*3D
$GNGSA,A,3,,,,,,,,,,,,,1.7,0.8,1.5,6*3C
$GNGLL,3010.4620249,N,09630.6239366,W,200653.000,A,A*5B
$GNRMC,200653.000,A,3010.4620249,N,09630.6239366,W,000.1,000.0,301223,,,A,V*16
$GNVTG,000.0,T,,M,000.1,N,000.2,K,A*10
$GNZDA,200653.000,30,12,2023,00,00*49
$PSTI,030,200653.000,A,3010.4620249,N,09630.6239366,W,95.486,0.01,-0.05,0.00,301223,A,0.000,0.000*16
$PSTI,032,200653.000,301223,V,,,,,,,,,,,*48
$GPGGA,200654.000,3010.4620239,N,09630.6239361,W,1,15,0.8,95.485,M,-24.900,M,,0000*5C
$GNGSA,A,3,04,07,08,09,14,30,,,,,,,1.7,0.8,1.5,1*3F
$GNGSA,A,3,21,27,,,,,,,,,,,1.7,0.8,1.5,3*3F
$GNGSA,A,3,11,23,25,32,34,37,43,,,,,,1.7,0.8,1.5,4*3D
$GNGSA,A,3,,,,,,,,,,,,,1.7,0.8,1.5,6*3C
$GNGLL,3010.4620239,N,09630.6239361,W,200654.000,A,A*5C
$GNRMC,200654.000,A,3010.4620239,N,09630.6239361,W,000.1,000.0,301223,,,A,V*11
$GNVTG,000.0,T,,M,000.1,N,000.2,K,A*10
$GNZDA,200654.000,30,12,2023,00,00*4E
$PSTI,030,200654.000,A,3010.4620239,N,09630.6239361,W,95.485,0.01,-0.04,0.00,301223,A,0.000,0.000*13
$PSTI,032,200654.000,301223,V,,,,,,,,,,,*4F
$GPGGA,200655.000,3010.4620228,N,09630.6239357,W,1,15,0.8,95.483,M,-24.900,M,,0000*5E
$GNGSA,A,3,04,07,08,09,14,30,,,,,,,1.7,0.8,1.5,1*3F
$GNGSA,A,3,21,27,,,,,,,,,,,1.7,0.8,1.5,3*3F
$GNGSA,A,3,11,23,25,32,34,37,43,,,,,,1.7,0.8,1.5,4*3D
$GNGSA,A,3,,,,,,,,,,,,,1.7,0.8,1.5,6*3C
